{
  "features": [
    {
      "type": "Feature",
      "properties": {
        "name": "烏川カフェ",
        "address": "下豊岡町665-3",
        "tel": "027-327-7722",
        "category": "カフェ",
        "address2": "高崎市下豊岡町665-3"
      },
      "geometry": {
        "coordinates": [
          138.991679,
          36.328273
        ],
        "type": "Point"
      },
      "id": "004437e91aa1fd91676633dc0f3cd5b0"
    },
    {
      "type": "Feature",
      "properties": {
        "name": "シャンゴ  本店",
        "address": "問屋町1-10-24",
        "tel": "027-362-7938",
        "category": "イタリアン",
        "address2": "高崎市問屋町1-10-24"
      },
      "geometry": {
        "coordinates": [
          139.007911,
          36.351113
        ],
        "type": "Point"
      },
      "id": "00daff972cd3d96de9deb995aed64da4"
    },
    {
      "type": "Feature",
      "properties": {
        "name": "しみず屋",
        "address": "吉井町長根1819-1",
        "tel": "027-387-7962",
        "category": "ラーメン",
        "address2": "高崎市吉井町長根1819-1"
      },
      "geometry": {
        "coordinates": [
          138.972812,
          36.250353
        ],
        "type": "Point"
      },
      "id": "00eac33ef362f1a63d831d3301970935"
    },
    {
      "type": "Feature",
      "properties": {
        "name": "高崎酒場",
        "address": "栄町6-42",
        "tel": "027-315-8883",
        "category": "居酒屋",
        "address2": "高崎市栄町6-42"
      },
      "geometry": {
        "coordinates": [
          139.016401,
          36.323448
        ],
        "type": "Point"
      },
      "id": "00fccb2c247bd1e45a8fa6a5db79c944"
    },
    {
      "type": "Feature",
      "properties": {
        "name": "ポムズファーム",
        "address": "棟高町1400 ｲｵﾝﾓｰﾙ高崎1F",
        "tel": "027-310-9063",
        "category": "オムライス、ハンバーグ、パスタ",
        "address2": "高崎市棟高町1400 ｲｵﾝﾓｰﾙ高崎1F"
      },
      "geometry": {
        "coordinates": [
          139.006913,
          36.390841
        ],
        "type": "Point"
      },
      "id": "014f10de1cfcc5828ec977fecc49d811"
    },
    {
      "type": "Feature",
      "properties": {
        "name": "自然堂",
        "address": "旭町40-2 ﾚﾏﾝﾋﾞﾙ201",
        "tel": "027-368-2058",
        "category": "居酒屋",
        "address2": "高崎市旭町40-2 ﾚﾏﾝﾋﾞﾙ201"
      },
      "geometry": {
        "coordinates": [
          139.010517,
          36.323806
        ],
        "type": "Point"
      },
      "id": "017c7d9427ab338c029fffb2d0fa7f54"
    },
    {
      "type": "Feature",
      "properties": {
        "name": "リンツショコラブティック＆カフェ",
        "address": "八島町46-1 高崎ｵｰﾊﾟ2F",
        "tel": "027-387-0610",
        "category": "カフェ",
        "address2": "高崎市八島町46-1 高崎ｵｰﾊﾟ2F"
      },
      "geometry": {
        "coordinates": [
          139.011326,
          36.323048
        ],
        "type": "Point"
      },
      "id": "01b20518fe5dba23333e108fe3518d6a"
    },
    {
      "type": "Feature",
      "properties": {
        "name": "いな垣",
        "address": "吉井町池1606-7",
        "tel": "027-387-8578",
        "category": "そば",
        "address2": "高崎市吉井町池1606-7"
      },
      "geometry": {
        "coordinates": [
          138.990951,
          36.26762
        ],
        "type": "Point"
      },
      "id": "01d5838a870a500a137b56f582aab556"
    },
    {
      "type": "Feature",
      "properties": {
        "name": "木曽路  高崎店",
        "address": "上大類町830-1",
        "tel": "027-310-7830",
        "category": "しゃぶしゃぶ、日本料理",
        "address2": "高崎市上大類町830-1"
      },
      "geometry": {
        "coordinates": [
          139.027556,
          36.336002
        ],
        "type": "Point"
      },
      "id": "022e10465f4f51afeacd484f6dfb6718"
    },
    {
      "type": "Feature",
      "properties": {
        "name": "すみれ食堂",
        "address": "宮元町2",
        "tel": "027-322-5314",
        "category": "ラーメン、定食",
        "address2": "高崎市宮元町2"
      },
      "geometry": {
        "coordinates": [
          139.004632,
          36.32591
        ],
        "type": "Point"
      },
      "id": "024bd31983a8558d51264b615006746f"
    },
    {
      "type": "Feature",
      "properties": {
        "name": "松風園  （しょうふうえん）",
        "address": "八幡原町５０８-１",
        "tel": "027-347-2818",
        "category": "軽食",
        "address2": "群馬県高崎市八幡原町５０８-１"
      },
      "geometry": {
        "coordinates": [
          139.085605,
          36.30382
        ],
        "type": "Point"
      },
      "id": "02c1080e6338b6a237a1d1ddc991cb3a"
    },
    {
      "type": "Feature",
      "properties": {
        "name": "おおぎやラーメン  高崎石原店",
        "address": "石原町1467",
        "tel": "027-328-8877",
        "category": "ラーメン",
        "address2": "高崎市石原町1467"
      },
      "geometry": {
        "coordinates": [
          139.000634,
          36.309594
        ],
        "type": "Point"
      },
      "id": "03698fa92f9f8ba4d5495783d9e76f02"
    },
    {
      "type": "Feature",
      "properties": {
        "name": "真人  （まと）",
        "address": "柴崎町1666-1",
        "tel": "027-353-4656",
        "category": "そば",
        "address2": "高崎市柴崎町1666-1"
      },
      "geometry": {
        "coordinates": [
          139.056636,
          36.310121
        ],
        "type": "Point"
      },
      "id": "038d9985db577203c3465a2f4904b993"
    },
    {
      "type": "Feature",
      "properties": {
        "name": "から好し  高崎江木店",
        "address": "江木町１６８１",
        "tel": "027-310-5066",
        "category": "ファミリーレストラン",
        "address2": "高崎市江木町１６８１"
      },
      "geometry": {
        "coordinates": [
          139.027452,
          36.330013
        ],
        "type": "Point"
      },
      "id": "03baef59975b0397c0cc96fbbec968f6"
    },
    {
      "type": "Feature",
      "properties": {
        "name": "京華",
        "address": "聖石町15-1",
        "tel": "027-326-6823",
        "category": "中華料理",
        "address2": "高崎市聖石町15-1"
      },
      "geometry": {
        "coordinates": [
          139.000565,
          36.316273
        ],
        "type": "Point"
      },
      "id": "04320d1bb33f546d1e32ccc541345cf0"
    },
    {
      "type": "Feature",
      "properties": {
        "name": "華龍",
        "address": "栄町1-1",
        "tel": "027-386-3388",
        "category": "中華料理",
        "address2": "高崎市栄町1-1"
      },
      "geometry": {
        "coordinates": [
          139.013836,
          36.323386
        ],
        "type": "Point"
      },
      "id": "04367f73ac9a6b2d991b55d4fffa2649"
    },
    {
      "type": "Feature",
      "properties": {
        "name": "だるま餃子．com",
        "address": "田町１１９−１",
        "tel": "027-329-5803",
        "category": "餃子",
        "address2": "高崎市田町１１９−１"
      },
      "geometry": {
        "coordinates": [
          139.006821,
          36.328693
        ],
        "type": "Point"
      },
      "id": "043c0fc773448818eb283437941b8af6"
    },
    {
      "type": "Feature",
      "properties": {
        "name": "蒼屋",
        "address": "倉賀野町１６４３-３",
        "tel": "027-320-8677",
        "category": "ソースカツ丼、そば",
        "address2": "群馬県高崎市倉賀野町１６４３-３"
      },
      "geometry": {
        "coordinates": [
          139.048038,
          36.296628
        ],
        "type": "Point"
      },
      "id": "04921e3d926deb8197a87f9285db4592"
    },
    {
      "type": "Feature",
      "properties": {
        "name": "and one cafe bar  （アンドワンカフェバー）",
        "address": "昭和町１７",
        "tel": "027-388-8516",
        "category": "軽食、酒類",
        "address2": "高崎市昭和町１７"
      },
      "geometry": {
        "coordinates": [
          139.003333,
          36.335948
        ],
        "type": "Point"
      },
      "id": "04d6614949fabecd53ca297f0ff619ca"
    },
    {
      "type": "Feature",
      "properties": {
        "name": "温石  （おんじゃく）",
        "address": "下大島町360-1",
        "tel": "027-343-3355",
        "category": "そば、うどん、丼物、定食等",
        "address2": "高崎市下大島町360-1"
      },
      "geometry": {
        "coordinates": [
          138.939512,
          36.351081
        ],
        "type": "Point"
      },
      "id": "04f68a2ac184f0d79fc8566d26733f47"
    },
    {
      "type": "Feature",
      "properties": {
        "name": "いっくう",
        "address": "榛名山町152",
        "tel": "027-374-9418",
        "category": "そば",
        "address2": "高崎市榛名山町152"
      },
      "geometry": {
        "coordinates": [
          138.848551,
          36.453559
        ],
        "type": "Point"
      },
      "id": "05555281f70bf3c6478813ad8f6fd9a8"
    },
    {
      "type": "Feature",
      "properties": {
        "name": "Navajo White",
        "address": "鞘町24",
        "tel": "027-322-6029",
        "category": "創作ラーメン",
        "address2": "高崎市鞘町24"
      },
      "geometry": {
        "coordinates": [
          139.004963,
          36.325971
        ],
        "type": "Point"
      },
      "id": "05a36749a87b1096c6a1ce2ab7db6b53"
    },
    {
      "type": "Feature",
      "properties": {
        "name": "ばりきや  高崎店",
        "address": "問屋町1-6-13",
        "tel": "027-370-5550",
        "category": "ラーメン",
        "address2": "高崎市問屋町1-6-13"
      },
      "geometry": {
        "coordinates": [
          139.009529,
          36.348601
        ],
        "type": "Point"
      },
      "id": "05d6d7962b69aa57fa340784413ed7f1"
    },
    {
      "type": "Feature",
      "properties": {
        "name": "フライングガーデン  高崎上小塙店",
        "address": "上小塙町1007",
        "tel": "027-340-7300",
        "category": "レストラン",
        "address2": "高崎市上小塙町1007"
      },
      "geometry": {
        "coordinates": [
          138.983181,
          36.354546
        ],
        "type": "Point"
      },
      "id": "063454b433ed444388800fd94041d310"
    },
    {
      "type": "Feature",
      "properties": {
        "name": "おおつ",
        "address": "吉井町池1459-1",
        "tel": "027-387-8889",
        "category": "日本料理",
        "address2": "高崎市吉井町池1459-1"
      },
      "geometry": {
        "coordinates": [
          138.991229,
          36.264071
        ],
        "type": "Point"
      },
      "id": "064c9a37ef8bd4406b863345521e96f7"
    },
    {
      "type": "Feature",
      "properties": {
        "name": "香ノ酉",
        "address": "江木町566-5",
        "tel": "027-381-8850",
        "category": "焼鳥",
        "address2": "高崎市江木町566-5"
      },
      "geometry": {
        "coordinates": [
          139.019791,
          36.333791
        ],
        "type": "Point"
      },
      "id": "067efd945ddd1aaa61ff394af974c896"
    },
    {
      "type": "Feature",
      "properties": {
        "name": "萬屋  高崎矢中店  （よろずや）",
        "address": "矢中町317-24",
        "tel": "027-386-6978",
        "category": "焼肉、そば、うどん",
        "address2": "高崎市矢中町317-24"
      },
      "geometry": {
        "coordinates": [
          139.047203,
          36.312583
        ],
        "type": "Point"
      },
      "id": "06d7803d25511e0394d54c45c6971df0"
    },
    {
      "type": "Feature",
      "properties": {
        "name": "そばはや",
        "address": "問屋町1-11-33",
        "tel": "027-363-6160",
        "category": "そば、うどん",
        "address2": "高崎市問屋町1-11-33"
      },
      "geometry": {
        "coordinates": [
          139.009694,
          36.351101
        ],
        "type": "Point"
      },
      "id": "073d6102ec2f8bca3455e16dee9fa184"
    },
    {
      "type": "Feature",
      "properties": {
        "name": "エルフリオ大手前",
        "address": "宮元町206",
        "tel": "027-321-4785",
        "category": "スパゲティー、ピザ",
        "address2": "高崎市宮元町206"
      },
      "geometry": {
        "coordinates": [
          139.005296,
          36.324452
        ],
        "type": "Point"
      },
      "id": "07c895975fe69983fc70de469eb4124b"
    },
    {
      "type": "Feature",
      "properties": {
        "name": "丸義  （まるよし）",
        "address": "上里見町７１１",
        "tel": "027-374-0123",
        "category": "中国料理",
        "address2": "高崎市上里見町７１１"
      },
      "geometry": {
        "coordinates": [
          138.891836,
          36.376556
        ],
        "type": "Point"
      },
      "id": "08070c0641515b4542a5d9bec0d3dfaa"
    },
    {
      "type": "Feature",
      "properties": {
        "name": "ザ・ジョージアンハウス1997  ル・シーニュ",
        "address": "江木町412-1",
        "tel": "027-322-3337",
        "category": "レストラン",
        "address2": "高崎市江木町412-1"
      },
      "geometry": {
        "coordinates": [
          139.014316,
          36.331337
        ],
        "type": "Point"
      },
      "id": "0827756c3d978095e70d61628cc80767"
    },
    {
      "type": "Feature",
      "properties": {
        "name": "割烹ざくろ高崎",
        "address": "飯塚町465-7",
        "tel": "027-363-5445",
        "category": "和食",
        "address2": "高崎市飯塚町465-7"
      },
      "geometry": {
        "coordinates": [
          139.009445,
          36.342222
        ],
        "type": "Point"
      },
      "id": "083315968efdd59bf70ce1b047d2711e"
    },
    {
      "type": "Feature",
      "properties": {
        "name": "だるま食堂",
        "address": "飯塚町355-3",
        "tel": "027-363-1728",
        "category": "もつ煮、牛すじ",
        "address2": "高崎市飯塚町355-3"
      },
      "geometry": {
        "coordinates": [
          139.00803,
          36.344527
        ],
        "type": "Point"
      },
      "id": "084498e88ad5a6cf5cfe93825bd2626c"
    },
    {
      "type": "Feature",
      "properties": {
        "name": "コメダ珈琲店  高崎飯塚店",
        "address": "飯塚町４３９-１",
        "tel": "027-388-9280",
        "category": "珈琲、軽食",
        "address2": "群馬県高崎市飯塚町４３９-１"
      },
      "geometry": {
        "coordinates": [
          139.008722,
          36.341134
        ],
        "type": "Point"
      },
      "id": "087825c8633d5e28c9e2a37f1221b7c2"
    },
    {
      "type": "Feature",
      "properties": {
        "name": "nano",
        "address": "浜尻町５１１ サンクフルタウン 1-D",
        "tel": "027-381-6466",
        "category": "カフェ",
        "address2": "高崎市浜尻町５１１ サンクフルタウン 1-D"
      },
      "geometry": {
        "coordinates": [
          139.011765,
          36.357117
        ],
        "type": "Point"
      },
      "id": "089d5997dede1463b93c646c1951a300"
    },
    {
      "type": "Feature",
      "properties": {
        "name": "味蔵  （あじくら）",
        "address": "綿貫町1695-3",
        "tel": "027-347-1167",
        "category": "ラーメン",
        "address2": "高崎市綿貫町1695-3"
      },
      "geometry": {
        "coordinates": [
          139.073624,
          36.309701
        ],
        "type": "Point"
      },
      "id": "089fe49944c4eb4ff6470b255883c1e1"
    },
    {
      "type": "Feature",
      "properties": {
        "name": "薄利多売半兵ヱ  （はくりたばいはんべえ）",
        "address": "八島町１丁目２−１１０−６−７ TO-MOREビル 1F",
        "tel": "027-310-5008",
        "category": "居酒屋",
        "address2": "高崎市八島町１丁目２−１１０−６−７ TO-MOREビル 1F"
      },
      "geometry": {
        "coordinates": [
          139.011292,
          36.321154
        ],
        "type": "Point"
      },
      "id": "0911532a81e3f93ae6c2e8ce742abfb4"
    },
    {
      "type": "Feature",
      "properties": {
        "name": "バンビーナ  高崎アリーナ店",
        "address": "和田町1-5 ｼﾃｨｰﾀﾜｰ高崎104",
        "tel": "027-395-4531",
        "category": "パスタ、ピザ等",
        "address2": "高崎市和田町1-5 ｼﾃｨｰﾀﾜｰ高崎104"
      },
      "geometry": {
        "coordinates": [
          139.011248,
          36.317755
        ],
        "type": "Point"
      },
      "id": "091b579693cb989fa50b0fbe6d6f4052"
    },
    {
      "type": "Feature",
      "properties": {
        "name": "Links' cafe",
        "address": "江木町333-1 ACTﾋﾞﾙ3F",
        "tel": "027-384-6818",
        "category": "カフェ",
        "address2": "高崎市江木町333-1 ACTﾋﾞﾙ3F"
      },
      "geometry": {
        "coordinates": [
          139.012861,
          36.329943
        ],
        "type": "Point"
      },
      "id": "092e388811951b23a56eeffbd0ef5171"
    },
    {
      "type": "Feature",
      "properties": {
        "name": "さくら",
        "address": "棟高町2541 堤ﾋﾞﾙ103",
        "tel": "027-374-5655",
        "category": "居酒屋",
        "address2": "高崎市棟高町2541 堤ﾋﾞﾙ103"
      },
      "geometry": {
        "coordinates": [
          139.001944,
          36.377872
        ],
        "type": "Point"
      },
      "id": "092f2ec9b3d468fd6b9cc0fc7b371918"
    },
    {
      "type": "Feature",
      "properties": {
        "name": "カフェレスト",
        "address": "栄町１-１ ＬＡＢＩ１高崎 5F LIFE SELECT高崎",
        "tel": "050-5595-3725",
        "category": "カフェ",
        "address2": "群馬県高崎市栄町１-１ ＬＡＢＩ１高崎 5F LIFE SELECT高崎"
      },
      "geometry": {
        "coordinates": [
          139.013689,
          36.322898
        ],
        "type": "Point"
      },
      "id": "094d22b11073f0c38fdf76514673d5a8"
    },
    {
      "type": "Feature",
      "properties": {
        "name": "やまもと",
        "address": "田町113",
        "tel": "027-321-5589",
        "category": "やきとり",
        "address2": "高崎市田町113"
      },
      "geometry": {
        "coordinates": [
          139.006679,
          36.328514
        ],
        "type": "Point"
      },
      "id": "09c408542f33bcadc60e91d67ec00343"
    },
    {
      "type": "Feature",
      "properties": {
        "name": "旬彩",
        "address": "乗附町2217-3",
        "tel": "027-327-4753",
        "category": "焼きまんじゅう、コーヒー他",
        "address2": "高崎市乗附町2217-3"
      },
      "geometry": {
        "coordinates": [
          138.981906,
          36.312133
        ],
        "type": "Point"
      },
      "id": "09e418ceead9f95fc12588255eb6aff8"
    },
    {
      "type": "Feature",
      "properties": {
        "name": "ケンタッキーフライドチキン  倉賀野バイパス店",
        "address": "下之城町 字村北176-8",
        "tel": "027-320-1670",
        "category": "フライドチキン",
        "address2": "群馬県高崎市下之城町 字村北176-8"
      },
      "geometry": {
        "coordinates": [
          139.030767,
          36.311376
        ],
        "type": "Point"
      },
      "id": "0a5eaf224f711d6ddfbcffc19b4c9887"
    },
    {
      "type": "Feature",
      "properties": {
        "name": "たまりや",
        "address": "福島町802-6",
        "tel": "080-7850-4882",
        "category": "ラーメン",
        "address2": "高崎市福島町802-6"
      },
      "geometry": {
        "coordinates": [
          139.000723,
          36.366084
        ],
        "type": "Point"
      },
      "id": "0b1635c429fbb93914a772d351e72835"
    },
    {
      "type": "Feature",
      "properties": {
        "name": "一  （はじめ）",
        "address": "下大類町１２５８",
        "tel": "027-388-8345",
        "category": "寿司",
        "address2": "群馬県高崎市下大類町１２５８"
      },
      "geometry": {
        "coordinates": [
          139.062971,
          36.312525
        ],
        "type": "Point"
      },
      "id": "0bd42bd066ff6806efb233527b3b183b"
    },
    {
      "type": "Feature",
      "properties": {
        "name": "魚民  高崎西口駅前店",
        "address": "鶴見町3-1 西口ｻｳｽﾊﾟｰｸﾋﾞﾙ1F",
        "tel": "027-321-8788",
        "category": "居酒屋",
        "address2": "高崎市鶴見町3-1 西口ｻｳｽﾊﾟｰｸﾋﾞﾙ1F"
      },
      "geometry": {
        "coordinates": [
          139.011654,
          36.320735
        ],
        "type": "Point"
      },
      "id": "0bdadb58d59c12d55c44ef650688974d"
    },
    {
      "type": "Feature",
      "properties": {
        "name": "レストラン．ロビンソン",
        "address": "倉賀野町5382-7",
        "tel": "027-347-4077",
        "category": "洋食",
        "address2": "高崎市倉賀野町5382-7"
      },
      "geometry": {
        "coordinates": [
          139.048556,
          36.303239
        ],
        "type": "Point"
      },
      "id": "0bf1d4d401e516560f8cd74071231141"
    },
    {
      "type": "Feature",
      "properties": {
        "name": "すかや  末広支店",
        "address": "末広町22",
        "tel": "027-322-3600",
        "category": "麺類",
        "address2": "高崎市末広町22"
      },
      "geometry": {
        "coordinates": [
          139.00696,
          36.333184
        ],
        "type": "Point"
      },
      "id": "0c1bef850f544dacde3460b8dc22019f"
    },
    {
      "type": "Feature",
      "properties": {
        "name": "がってん寿司  高崎上大類店",
        "address": "上大類町776",
        "tel": "027-353-9010",
        "category": "寿司",
        "address2": "高崎市上大類町776"
      },
      "geometry": {
        "coordinates": [
          139.028134,
          36.333929
        ],
        "type": "Point"
      },
      "id": "0c31dd05dcef37e6d4db1467711252cc"
    },
    {
      "type": "Feature",
      "properties": {
        "name": "ヴィラローマ  高崎店",
        "address": "飯塚町72-1",
        "tel": "027-365-5032",
        "category": "ピザ、サラダ、ドリンク、食べ放題",
        "address2": "高崎市飯塚町72-1"
      },
      "geometry": {
        "coordinates": [
          138.99772,
          36.345439
        ],
        "type": "Point"
      },
      "id": "0c62482712f9006ff7ba8f240fd4d68a"
    },
    {
      "type": "Feature",
      "properties": {
        "name": "ル・コワン",
        "address": "飯塚町472-10",
        "tel": "027-363-1698",
        "category": "コーヒー、スパゲティ、ピラフ",
        "address2": "高崎市飯塚町472-10"
      },
      "geometry": {
        "coordinates": [
          139.004549,
          36.342478
        ],
        "type": "Point"
      },
      "id": "0cac4984d66a7b4bfbb0b54fd9bb30f6"
    },
    {
      "type": "Feature",
      "properties": {
        "name": "ガスト  倉賀野店",
        "address": "倉賀野町３０８番地",
        "tel": "027-320-2127",
        "category": "ファミリーレストラン",
        "address2": "高崎市倉賀野町３０８番地"
      },
      "geometry": {
        "coordinates": [
          139.03428,
          36.299959
        ],
        "type": "Point"
      },
      "id": "0cb8da61e5941dbfbfb793cf09f3d382"
    },
    {
      "type": "Feature",
      "properties": {
        "name": "味里",
        "address": "箕郷町上芝１８１-２",
        "tel": "027-371-0471",
        "category": "食堂",
        "address2": "群馬県高崎市箕郷町上芝１８１-２"
      },
      "geometry": {
        "coordinates": [
          138.963887,
          36.388071
        ],
        "type": "Point"
      },
      "id": "0d2d2d64b29543c830e1e6460ed79be1"
    },
    {
      "type": "Feature",
      "properties": {
        "name": "スナック なずな",
        "address": "剣崎町１１５６−６",
        "tel": "027-344-3638",
        "category": "スナック",
        "address2": "高崎市剣崎町１１５６−６"
      },
      "geometry": {
        "coordinates": [
          138.957829,
          36.345821
        ],
        "type": "Point"
      },
      "id": "0d584396f6b3c70fe23cab06c8aeb3e0"
    },
    {
      "type": "Feature",
      "properties": {
        "name": "ニュータウン ニュータウン",
        "address": "新町1411-1",
        "tel": "",
        "category": "カフェ",
        "address2": "高崎市新町1411-1"
      },
      "geometry": {
        "coordinates": [
          139.107841,
          36.264494
        ],
        "type": "Point"
      },
      "id": "0d67b10341b16204e6e9c7a1a340743c"
    },
    {
      "type": "Feature",
      "properties": {
        "name": "bistro À table",
        "address": "連雀町１３７",
        "tel": "027-321-3399",
        "category": "洋食",
        "address2": "高崎市連雀町１３７"
      },
      "geometry": {
        "coordinates": [
          139.006906,
          36.324219
        ],
        "type": "Point"
      },
      "id": "0d6ec7dc0253c91d2c00b03a606ff8be"
    },
    {
      "type": "Feature",
      "properties": {
        "name": "おいでやす",
        "address": "柳川町83",
        "tel": "027-324-2211",
        "category": "居酒屋",
        "address2": "高崎市柳川町83"
      },
      "geometry": {
        "coordinates": [
          139.003571,
          36.329422
        ],
        "type": "Point"
      },
      "id": "0df815004a6d4c30a9a3111108e5a006"
    },
    {
      "type": "Feature",
      "properties": {
        "name": "鳥章  （とりしょう）",
        "address": "綿貫町1275-8",
        "tel": "027-346-0793",
        "category": "うなぎ、鳥料理",
        "address2": "高崎市綿貫町1275-8"
      },
      "geometry": {
        "coordinates": [
          139.078583,
          36.304487
        ],
        "type": "Point"
      },
      "id": "0e108ed121deccb9ba5d0ec040c6b97a"
    },
    {
      "type": "Feature",
      "properties": {
        "name": "福籠",
        "address": "寄合町 25-12 1C",
        "tel": "027-381-6615",
        "category": "ラーメン",
        "address2": "群馬県高崎市寄合町 25-12 1C"
      },
      "geometry": {
        "coordinates": [
          139.005386,
          36.328315
        ],
        "type": "Point"
      },
      "id": "0e11a2ea00e7ed545bab27f0ada4636c"
    },
    {
      "type": "Feature",
      "properties": {
        "name": "ニューデリー  マハトマ店",
        "address": "問屋町西1-3-1",
        "tel": "027-362-3451",
        "category": "インド料理",
        "address2": "高崎市問屋町西1-3-1"
      },
      "geometry": {
        "coordinates": [
          139.003412,
          36.348652
        ],
        "type": "Point"
      },
      "id": "0e1f9cc261aeb308efb1607895d002b1"
    },
    {
      "type": "Feature",
      "properties": {
        "name": "和食  佐藤",
        "address": "田町75-4 富士ﾋﾞﾙ1F",
        "tel": "027-388-0280",
        "category": "和食料理",
        "address2": "高崎市田町75-4 富士ﾋﾞﾙ1F"
      },
      "geometry": {
        "coordinates": [
          139.007278,
          36.326747
        ],
        "type": "Point"
      },
      "id": "0e512aed3135ee58f5cc967fec2bd449"
    },
    {
      "type": "Feature",
      "properties": {
        "name": "しおん",
        "address": "八島町222 高崎駅ﾋﾞﾙ5Ｆ",
        "tel": "027-327-8388",
        "category": "和食",
        "address2": "高崎市八島町222 高崎駅ﾋﾞﾙ5Ｆ"
      },
      "geometry": {
        "coordinates": [
          139.011984,
          36.322673
        ],
        "type": "Point"
      },
      "id": "0e90b5cb78c7f4a0037f869b1eae1fb1"
    },
    {
      "type": "Feature",
      "properties": {
        "name": "相間川温泉ふれあい館",
        "address": "倉渕町水沼27",
        "tel": "027-378-3834",
        "category": "釜飯",
        "address2": "群馬県高崎市倉渕町水沼27"
      },
      "geometry": {
        "coordinates": [
          138.773141,
          36.421129
        ],
        "type": "Point"
      },
      "id": "0e927320ed9e49a71ced34bfc9901410"
    },
    {
      "type": "Feature",
      "properties": {
        "name": "福源",
        "address": "吉井町池１４７９−２０",
        "tel": "027-388-8635",
        "category": "台湾料理",
        "address2": "群馬県高崎市吉井町池１４７９−２０"
      },
      "geometry": {
        "coordinates": [
          138.990154,
          36.262464
        ],
        "type": "Point"
      },
      "id": "0f087abbed319ab81267aafaa24fc5c0"
    },
    {
      "type": "Feature",
      "properties": {
        "name": "ガスライト（高崎ワシントンホテルプラザ内）",
        "address": "八島町70  高崎ﾜｼﾝﾄﾝﾎﾃﾙﾌﾟﾗｻﾞ12F",
        "tel": "027-324-2602",
        "category": "洋食レストラン",
        "address2": "高崎市八島町70  高崎ﾜｼﾝﾄﾝﾎﾃﾙﾌﾟﾗｻﾞ12F"
      },
      "geometry": {
        "coordinates": [
          139.010213,
          36.322128
        ],
        "type": "Point"
      },
      "id": "0f583ff5ecd11a4bcdb9a8b11594e6e5"
    },
    {
      "type": "Feature",
      "properties": {
        "name": "ケインズ",
        "address": "石原町２３９８-１５",
        "tel": "027-326-4162",
        "category": "コーヒー、サンドイッチ、パフェ",
        "address2": "群馬県高崎市石原町２３９８-１５"
      },
      "geometry": {
        "coordinates": [
          138.986846,
          36.311074
        ],
        "type": "Point"
      },
      "id": "0f6df8cc00271e0aeb5477339ed3d46a"
    },
    {
      "type": "Feature",
      "properties": {
        "name": "やいさほー",
        "address": "大八木町3002-5",
        "tel": "027-315-8134",
        "category": "カフェバー",
        "address2": "高崎市大八木町3002-5"
      },
      "geometry": {
        "coordinates": [
          139.01003,
          36.35492
        ],
        "type": "Point"
      },
      "id": "0f92721a440d0ee821ddabc9db65c0a0"
    },
    {
      "type": "Feature",
      "properties": {
        "name": "丹涼",
        "address": "本町110",
        "tel": "027-323-0093",
        "category": "ステーキ、しゃぶしゃぶ、すきやき",
        "address2": "高崎市本町110"
      },
      "geometry": {
        "coordinates": [
          139.004341,
          36.330683
        ],
        "type": "Point"
      },
      "id": "111823ae6c49e170dba838a130966039"
    },
    {
      "type": "Feature",
      "properties": {
        "name": "LABI1 LIFE SELECT 高崎",
        "address": "栄町１-１",
        "tel": "027-345-8811",
        "category": "テナントとして入居している飲食店",
        "address2": "群馬県高崎市栄町１-１"
      },
      "geometry": {
        "coordinates": [
          139.013818,
          36.323018
        ],
        "type": "Point"
      },
      "id": "111c82bf24198867734808ca5e984486"
    },
    {
      "type": "Feature",
      "properties": {
        "name": "Cocofuwat  （ココフワット）",
        "address": "綿貫町128-9",
        "tel": "027-335-6353",
        "category": "パン",
        "address2": "高崎市綿貫町128-9"
      },
      "geometry": {
        "coordinates": [
          139.06995,
          36.310649
        ],
        "type": "Point"
      },
      "id": "1169ff9c0b59ff349cac9993d2b89e2d"
    },
    {
      "type": "Feature",
      "properties": {
        "name": "福来香",
        "address": "大八木町1975-7",
        "tel": "027-362-9133",
        "category": "中華料理",
        "address2": "高崎市大八木町1975-7"
      },
      "geometry": {
        "coordinates": [
          139.000701,
          36.358284
        ],
        "type": "Point"
      },
      "id": "116dcdfea4d18be56b9bdec0171989b7"
    },
    {
      "type": "Feature",
      "properties": {
        "name": "ボンジョルノ  新クッチーナ店",
        "address": "西島町131-2",
        "tel": "027-352-1255",
        "category": "パスタ、ピッツァ、イタリア料理",
        "address2": "高崎市西島町131-2"
      },
      "geometry": {
        "coordinates": [
          139.045593,
          36.341654
        ],
        "type": "Point"
      },
      "id": "1192b926caeae61ace4e2b1e071e52ae"
    },
    {
      "type": "Feature",
      "properties": {
        "name": "HappyBurg  高崎倉賀野店",
        "address": "倉賀野町2675-1",
        "tel": "027-387-0925",
        "category": "ハンバーグ、ステーキ",
        "address2": "高崎市倉賀野町2675-1"
      },
      "geometry": {
        "coordinates": [
          139.068586,
          36.296156
        ],
        "type": "Point"
      },
      "id": "11a45a3f7cae8f71216453df0561d0f5"
    },
    {
      "type": "Feature",
      "properties": {
        "name": "あじろ",
        "address": "緑町1-11-4",
        "tel": "027-362-0720",
        "category": "とんかつ",
        "address2": "高崎市緑町1-11-4"
      },
      "geometry": {
        "coordinates": [
          139.000569,
          36.351274
        ],
        "type": "Point"
      },
      "id": "11a91ac02ad9cf8fef3553f09eea0f44"
    },
    {
      "type": "Feature",
      "properties": {
        "name": "ラウライタリコ",
        "address": "井野町1009-4",
        "tel": "027-381-8787",
        "category": "イタリア料理",
        "address2": "高崎市井野町1009-4"
      },
      "geometry": {
        "coordinates": [
          139.029863,
          36.353911
        ],
        "type": "Point"
      },
      "id": "11b91205d15a4c030e4e9d880887324e"
    },
    {
      "type": "Feature",
      "properties": {
        "name": "Choinomi KATSU",
        "address": "八島町222",
        "tel": "070-8551-0217",
        "category": "日本酒、和食",
        "address2": "高崎市八島町222"
      },
      "geometry": {
        "coordinates": [
          139.012049,
          36.322446
        ],
        "type": "Point"
      },
      "id": "11b93e057bbbe46128bc51df717d17f6"
    },
    {
      "type": "Feature",
      "properties": {
        "name": "北の大地",
        "address": "上並榎町265-2 ｼﾃｨﾎｰﾑ並榎101",
        "tel": "027-393-6333",
        "category": "ジンギスカン",
        "address2": "高崎市上並榎町265-2 ｼﾃｨﾎｰﾑ並榎101"
      },
      "geometry": {
        "coordinates": [
          138.987988,
          36.34427
        ],
        "type": "Point"
      },
      "id": "11df7c7abb386fd740dd97418712122a"
    },
    {
      "type": "Feature",
      "properties": {
        "name": "ガンベロッソ",
        "address": "中泉町622-23",
        "tel": "027-350-3060",
        "category": "イタリア料理",
        "address2": "高崎市中泉町622-23"
      },
      "geometry": {
        "coordinates": [
          139.002893,
          36.370088
        ],
        "type": "Point"
      },
      "id": "11fc19599a60a2f6e57046b0aaf77aab"
    },
    {
      "type": "Feature",
      "properties": {
        "name": "キリンシティ",
        "address": "八島町222 JR高崎駅東口1階",
        "tel": "027-310-1151",
        "category": "ビアホール",
        "address2": "高崎市八島町222 JR高崎駅東口1階"
      },
      "geometry": {
        "coordinates": [
          139.013322,
          36.32246
        ],
        "type": "Point"
      },
      "id": "1202df67644e8d529a49dd87fc97887b"
    },
    {
      "type": "Feature",
      "properties": {
        "name": "リンガーハット",
        "address": "棟高町1400",
        "tel": "027-360-6272",
        "category": "チャンポン",
        "address2": "高崎市棟高町1400"
      },
      "geometry": {
        "coordinates": [
          139.006936,
          36.389722
        ],
        "type": "Point"
      },
      "id": "122557727dc12b230d32b2ebd723bf22"
    },
    {
      "type": "Feature",
      "properties": {
        "name": "蕾",
        "address": "連雀町30-1",
        "tel": "027-393-6687",
        "category": "肉割烹",
        "address2": "高崎市連雀町30-1"
      },
      "geometry": {
        "coordinates": [
          139.007509,
          36.324934
        ],
        "type": "Point"
      },
      "id": "1225fa2472ad602aa63cc5776b0061a2"
    },
    {
      "type": "Feature",
      "properties": {
        "name": "なんじゃもんじゃ",
        "address": "上小鳥町169-1",
        "tel": "027-364-4137",
        "category": "お好焼き、もんじゃ、焼きそば、鉄板焼",
        "address2": "高崎市上小鳥町169-1"
      },
      "geometry": {
        "coordinates": [
          138.987958,
          36.354642
        ],
        "type": "Point"
      },
      "id": "12405b2868d7b81555e647e1cf8917ff"
    },
    {
      "type": "Feature",
      "properties": {
        "name": "ラ・ターブル・ドゥ・シュエット",
        "address": "江木町1471-2 ｾﾋﾟｱﾊﾟﾚｽ102",
        "tel": "027-386-6752",
        "category": "フランス料理",
        "address2": "高崎市江木町1471-2 ｾﾋﾟｱﾊﾟﾚｽ102"
      },
      "geometry": {
        "coordinates": [
          139.025184,
          36.331605
        ],
        "type": "Point"
      },
      "id": "126022d68c7ce627c0d967929f0d78d1"
    },
    {
      "type": "Feature",
      "properties": {
        "name": "Art Marche Team Al.che-cciano",
        "address": "高松町３５-１ 役所 21F 新庁舎",
        "tel": "027-329-5775",
        "category": "洋食",
        "address2": "群馬県高崎市高松町３５-１ 高崎市役所 21F 新庁舎"
      },
      "geometry": {
        "coordinates": [
          139.003306,
          36.321635
        ],
        "type": "Point"
      },
      "id": "1272824217d4ad515d7a2a58166019cc"
    },
    {
      "type": "Feature",
      "properties": {
        "name": "獅子王",
        "address": "下小鳥町67-5 ｼｮｳｴｲﾌﾟﾗｻﾞ2号",
        "tel": "027-363-4774",
        "category": "らーめん、つけ麺、まぜそば",
        "address2": "高崎市下小鳥町67-5 ｼｮｳｴｲﾌﾟﾗｻﾞ2号"
      },
      "geometry": {
        "coordinates": [
          138.992996,
          36.353479
        ],
        "type": "Point"
      },
      "id": "1312b815f513810a5fa654abd8d39515"
    },
    {
      "type": "Feature",
      "properties": {
        "name": "Kissa Coffee",
        "address": "南大類町1030-2",
        "tel": "027-377-3277",
        "category": "喫茶",
        "address2": "高崎市南大類町1030-2"
      },
      "geometry": {
        "coordinates": [
          139.038163,
          36.325415
        ],
        "type": "Point"
      },
      "id": "132a177ed61d25b528a8cc9c547adfcb"
    },
    {
      "type": "Feature",
      "properties": {
        "name": "大恵鮨  （だいけいずし）",
        "address": "倉賀野町407",
        "tel": "027-346-3326",
        "category": "寿司",
        "address2": "高崎市倉賀野町407"
      },
      "geometry": {
        "coordinates": [
          139.039312,
          36.298727
        ],
        "type": "Point"
      },
      "id": "1357cf8bc46a7cd6059f4843011542ac"
    },
    {
      "type": "Feature",
      "properties": {
        "name": "高崎オーパ",
        "address": "八島町46-1 高崎ｵｰﾊﾟ3F",
        "tel": "027-321-8111",
        "category": "テナントとして入居している飲食店",
        "address2": "高崎市八島町46-1 高崎ｵｰﾊﾟ3F"
      },
      "geometry": {
        "coordinates": [
          139.011095,
          36.323077
        ],
        "type": "Point"
      },
      "id": "137504ef2bd32f3d7120b1cd8d0aa7a5"
    },
    {
      "type": "Feature",
      "properties": {
        "name": "茶蔵坊  高崎下之城店",
        "address": "下之城町１８４−４",
        "tel": "027-329-6344",
        "category": "サンドウィッチ、野菜",
        "address2": "高崎市下之城町１８４−４"
      },
      "geometry": {
        "coordinates": [
          139.029962,
          36.31036
        ],
        "type": "Point"
      },
      "id": "13a938ab372a8a235ba92af0d98c8d0f"
    },
    {
      "type": "Feature",
      "properties": {
        "name": "やまと",
        "address": "棟高町1400 ｲｵﾝﾓｰﾙ高崎",
        "tel": "027-388-1419",
        "category": "ローストビーフ丼",
        "address2": "高崎市棟高町1400 ｲｵﾝﾓｰﾙ高崎"
      },
      "geometry": {
        "coordinates": [
          139.006608,
          36.391622
        ],
        "type": "Point"
      },
      "id": "13b28a0a35b296e25953c6018cf5cd9b"
    },
    {
      "type": "Feature",
      "properties": {
        "name": "四方吉",
        "address": "江木町1507",
        "tel": "027-324-5517",
        "category": "うどん、ごはん類、天ぷら",
        "address2": "高崎市江木町1507"
      },
      "geometry": {
        "coordinates": [
          139.027678,
          36.332486
        ],
        "type": "Point"
      },
      "id": "13e987b0141778a7be255e5183454aca"
    },
    {
      "type": "Feature",
      "properties": {
        "name": "WANDEL  （ワンデル）",
        "address": "井出町1761-1",
        "tel": "027-373-6620",
        "category": "ハーブティ、紅茶、軽食、アルコール",
        "address2": "高崎市井出町1761-1"
      },
      "geometry": {
        "coordinates": [
          138.989553,
          36.373842
        ],
        "type": "Point"
      },
      "id": "14681308bacf91569b5bd94688d3fa78"
    },
    {
      "type": "Feature",
      "properties": {
        "name": "和魂  （やまとだましい）",
        "address": "新紺屋町１５−３",
        "tel": "027-386-9977",
        "category": "居酒屋",
        "address2": "高崎市新紺屋町１５−３"
      },
      "geometry": {
        "coordinates": [
          139.004829,
          36.329119
        ],
        "type": "Point"
      },
      "id": "147f494f6defd94d97bb3cdc216f2c0c"
    },
    {
      "type": "Feature",
      "properties": {
        "name": "プライムスターコーヒーマーケット",
        "address": "棟高町697",
        "tel": "080-7793-3735",
        "category": "コーヒー、その他ドリンク",
        "address2": "高崎市棟高町697"
      },
      "geometry": {
        "coordinates": [
          139.0001,
          36.385822
        ],
        "type": "Point"
      },
      "id": "14885cc82d496da29023e418e8477e7a"
    },
    {
      "type": "Feature",
      "properties": {
        "name": "みくに食堂",
        "address": "棟高町511-1",
        "tel": "027-373-0550",
        "category": "カツ丼、丼物、ラーメン、チャーハン",
        "address2": "高崎市棟高町511-1"
      },
      "geometry": {
        "coordinates": [
          138.997548,
          36.391142
        ],
        "type": "Point"
      },
      "id": "14ae2872380d61d8157aa6f5fb8683a4"
    },
    {
      "type": "Feature",
      "properties": {
        "name": "串カツ田中  高崎駅西口店",
        "address": "八島町48-2 高崎大洋ﾋﾞﾙ1階",
        "tel": "027-386-9001",
        "category": "串カツ、居酒屋",
        "address2": "高崎市八島町48-2 高崎大洋ﾋﾞﾙ1階"
      },
      "geometry": {
        "coordinates": [
          139.011419,
          36.323641
        ],
        "type": "Point"
      },
      "id": "150f871f3c49289a0b2ab53c92afa09d"
    },
    {
      "type": "Feature",
      "properties": {
        "name": "可楽",
        "address": "あら町6-20",
        "tel": "027-325-2608",
        "category": "中華料理",
        "address2": "高崎市あら町6-20"
      },
      "geometry": {
        "coordinates": [
          139.007604,
          36.320418
        ],
        "type": "Point"
      },
      "id": "15236b6ed8f145717156e030a682943f"
    },
    {
      "type": "Feature",
      "properties": {
        "name": "正道軒",
        "address": "上並榎町162-3",
        "tel": "027-362-1185",
        "category": "中華料理",
        "address2": "高崎市上並榎町162-3"
      },
      "geometry": {
        "coordinates": [
          138.987701,
          36.347385
        ],
        "type": "Point"
      },
      "id": "153d4313285f69e8e62bacbe14924c0b"
    },
    {
      "type": "Feature",
      "properties": {
        "name": "おぼろ家",
        "address": "筑縄町436-8",
        "tel": "027-329-6277",
        "category": "居酒屋",
        "address2": "高崎市筑縄町436-8"
      },
      "geometry": {
        "coordinates": [
          138.985787,
          36.3513
        ],
        "type": "Point"
      },
      "id": "1573d38e184d81954e08206c94cefc60"
    },
    {
      "type": "Feature",
      "properties": {
        "name": "大阪串かつ みなみ  レンガ通り店",
        "address": "連雀町10",
        "tel": "027-321-3080",
        "category": "串かつ、揚げ物、酒類、ソフトドリンク",
        "address2": "高崎市連雀町10"
      },
      "geometry": {
        "coordinates": [
          139.008545,
          36.324243
        ],
        "type": "Point"
      },
      "id": "1594b4df257da627a6dc68bd866b1617"
    },
    {
      "type": "Feature",
      "properties": {
        "name": "悟天",
        "address": "上並榎町24",
        "tel": "027-315-8886",
        "category": "居酒屋",
        "address2": "高崎市上並榎町24"
      },
      "geometry": {
        "coordinates": [
          138.993082,
          36.344804
        ],
        "type": "Point"
      },
      "id": "1597d1186a41146b237bda819b48572a"
    },
    {
      "type": "Feature",
      "properties": {
        "name": "プラリネ  菅谷店",
        "address": "菅谷町1243-1",
        "tel": "027-388-0224",
        "category": "パン",
        "address2": "高崎市菅谷町1243-1"
      },
      "geometry": {
        "coordinates": [
          139.009678,
          36.381758
        ],
        "type": "Point"
      },
      "id": "1600220bc46049b899654c7d0ddfeecc"
    },
    {
      "type": "Feature",
      "properties": {
        "name": "花火",
        "address": "連雀町25 寿ﾋﾞﾙ2F",
        "tel": "027-321-7888",
        "category": "居酒屋",
        "address2": "高崎市連雀町25 寿ﾋﾞﾙ2F"
      },
      "geometry": {
        "coordinates": [
          139.007494,
          36.324502
        ],
        "type": "Point"
      },
      "id": "161b5677536df4ca95c7f00514e5650c"
    },
    {
      "type": "Feature",
      "properties": {
        "name": "たつみ屋",
        "address": "榛名山町１３３−１",
        "tel": "027-374-3363",
        "category": "そば",
        "address2": "高崎市榛名山町１３３−１"
      },
      "geometry": {
        "coordinates": [
          138.847957,
          36.452544
        ],
        "type": "Point"
      },
      "id": "162c4d7968c37a56ac1271083d6ac522"
    },
    {
      "type": "Feature",
      "properties": {
        "name": "チャイナはうす龍",
        "address": "石原町3316-1",
        "tel": "027-326-2528",
        "category": "中華料理",
        "address2": "高崎市石原町3316-1"
      },
      "geometry": {
        "coordinates": [
          139.001465,
          36.305305
        ],
        "type": "Point"
      },
      "id": "162df3bb1fc08e4e2de2509c623d1e14"
    },
    {
      "type": "Feature",
      "properties": {
        "name": "ベッドフォードマーケット",
        "address": "八島町222 高崎ﾓﾝﾄﾚｰ 5F",
        "tel": "027-386-6363",
        "category": "カフェレストラン",
        "address2": "高崎市八島町222 高崎ﾓﾝﾄﾚｰ 5F"
      },
      "geometry": {
        "coordinates": [
          139.012055,
          36.322468
        ],
        "type": "Point"
      },
      "id": "165c69ee98b1a4bab5fba94f0dfdc0e0"
    },
    {
      "type": "Feature",
      "properties": {
        "name": "カラオケichi☆ban  高崎店",
        "address": "八島町１１０−６ TO-MOREビル３階",
        "tel": "027-325-5444",
        "category": "カラオケ店内での飲食",
        "address2": "高崎市八島町１１０−６ TO-MOREビル３階"
      },
      "geometry": {
        "coordinates": [
          139.011314,
          36.321126
        ],
        "type": "Point"
      },
      "id": "168e8549cc07a11a4d186655047cc5fe"
    },
    {
      "type": "Feature",
      "properties": {
        "name": "ラーメンテラス南南",
        "address": "島野町1044-6",
        "tel": "027-353-0751",
        "category": "餃子、厚切りバラ肉ラーメン",
        "address2": "高崎市島野町1044-6"
      },
      "geometry": {
        "coordinates": [
          139.053126,
          36.342544
        ],
        "type": "Point"
      },
      "id": "169ab772d2a207c33f920b8bda5f86c8"
    },
    {
      "type": "Feature",
      "properties": {
        "name": "魚孝／じん",
        "address": "本郷町566-3",
        "tel": "027-343-1266",
        "category": "魚料理",
        "address2": "高崎市本郷町566-3"
      },
      "geometry": {
        "coordinates": [
          138.930551,
          36.365761
        ],
        "type": "Point"
      },
      "id": "16bc8b9f4e43ecc9b2421e39c9459c95"
    },
    {
      "type": "Feature",
      "properties": {
        "name": "鈴木亭",
        "address": "江木町1430",
        "tel": "090-5567-8401",
        "category": "ファミリーダイニング",
        "address2": "高崎市江木町1430"
      },
      "geometry": {
        "coordinates": [
          139.023621,
          36.335123
        ],
        "type": "Point"
      },
      "id": "1715e1afa195ce8e656cc3a016fe2795"
    },
    {
      "type": "Feature",
      "properties": {
        "name": "だるま本店",
        "address": "住吉町６-４",
        "tel": "070-8339-6001",
        "category": "焼まんじゅう、焼きそば",
        "address2": "群馬県高崎市住吉町６-４"
      },
      "geometry": {
        "coordinates": [
          139.001313,
          36.334626
        ],
        "type": "Point"
      },
      "id": "174872ff06f88cbf5c23edfff3b54e2f"
    },
    {
      "type": "Feature",
      "properties": {
        "name": "花",
        "address": "新町2493",
        "tel": "080-7734-8656",
        "category": "居酒屋",
        "address2": "高崎市新町2493"
      },
      "geometry": {
        "coordinates": [
          139.108376,
          36.275412
        ],
        "type": "Point"
      },
      "id": "177c934773effe888080e989b91ccfad"
    },
    {
      "type": "Feature",
      "properties": {
        "name": "湊生  （みなせ）",
        "address": "八島町32-7 三笠第2ﾋﾞﾙ1階",
        "tel": "027-395-4586",
        "category": "らーめん、つけ麺、まぜそば",
        "address2": "高崎市八島町32-7 三笠第2ﾋﾞﾙ1階"
      },
      "geometry": {
        "coordinates": [
          139.010547,
          36.32366
        ],
        "type": "Point"
      },
      "id": "178ca41cc7531b97431f63360f90843e"
    },
    {
      "type": "Feature",
      "properties": {
        "name": "彩食酒笑1555",
        "address": "下小鳥町396-3",
        "tel": "080-7433-1018",
        "category": "居酒屋",
        "address2": "高崎市下小鳥町396-3"
      },
      "geometry": {
        "coordinates": [
          138.998431,
          36.355796
        ],
        "type": "Point"
      },
      "id": "179fc078222be904bf0ffb99b9c9b2b0"
    },
    {
      "type": "Feature",
      "properties": {
        "name": "ステーキ宮  高崎東店",
        "address": "上大類町884-1",
        "tel": "027-386-2929",
        "category": "ハンバーグ、ステーキ",
        "address2": "高崎市上大類町884-1"
      },
      "geometry": {
        "coordinates": [
          139.028015,
          36.337124
        ],
        "type": "Point"
      },
      "id": "17d202621a2108d84b45e8651b472b70"
    },
    {
      "type": "Feature",
      "properties": {
        "name": "大蔵坊こばやし  （だいぞうぼうこばやし）",
        "address": "榛名湖町847ｰ2",
        "tel": "027-374-9311",
        "category": "郷土料理",
        "address2": "高崎市榛名湖町847ｰ2"
      },
      "geometry": {
        "coordinates": [
          138.861359,
          36.47073
        ],
        "type": "Point"
      },
      "id": "18dfe8128a2f6ef081257c71656757ad"
    },
    {
      "type": "Feature",
      "properties": {
        "name": "いとをかし",
        "address": "若田町219-1",
        "tel": "027-344-4567",
        "category": "カフェ",
        "address2": "高崎市若田町219-1"
      },
      "geometry": {
        "coordinates": [
          138.941026,
          36.345269
        ],
        "type": "Point"
      },
      "id": "1908b02e363271f106e562e3c8c20056"
    },
    {
      "type": "Feature",
      "properties": {
        "name": "小野瀬",
        "address": "上小塙町515-7",
        "tel": "027-340-7322",
        "category": "すし",
        "address2": "高崎市上小塙町515-7"
      },
      "geometry": {
        "coordinates": [
          138.977999,
          36.359568
        ],
        "type": "Point"
      },
      "id": "191fa27ea4dc46427a9a5f61300a1224"
    },
    {
      "type": "Feature",
      "properties": {
        "name": "藤よし",
        "address": "飯塚町738",
        "tel": "027-362-5870",
        "category": "とんかつ、定食",
        "address2": "高崎市飯塚町738"
      },
      "geometry": {
        "coordinates": [
          139.000334,
          36.34236
        ],
        "type": "Point"
      },
      "id": "19656af23f7d8f7a9d6b82b890c5ed99"
    },
    {
      "type": "Feature",
      "properties": {
        "name": "むぎなわ",
        "address": "片岡町3-2-23",
        "tel": "027-325-5156",
        "category": "うどん",
        "address2": "高崎市片岡町3-2-23"
      },
      "geometry": {
        "coordinates": [
          138.993573,
          36.319699
        ],
        "type": "Point"
      },
      "id": "197eedac7809c19b0e8e541773bb0c7f"
    },
    {
      "type": "Feature",
      "properties": {
        "name": "エッグスンシングス",
        "address": "八島町46-1 高崎OPA2階",
        "tel": "027-386-5441",
        "category": "パンケーキ、カフェ",
        "address2": "高崎市八島町46-1 高崎OPA2階"
      },
      "geometry": {
        "coordinates": [
          139.011241,
          36.322791
        ],
        "type": "Point"
      },
      "id": "19ae5a120a7f1fe9aa1911d0707ebbae"
    },
    {
      "type": "Feature",
      "properties": {
        "name": "神田ポンチ軒  高崎店",
        "address": "栄町12-3",
        "tel": "027-395-4548",
        "category": "とんかつ",
        "address2": "高崎市栄町12-3"
      },
      "geometry": {
        "coordinates": [
          139.016186,
          36.321312
        ],
        "type": "Point"
      },
      "id": "19dea8bec65836eebefe1b5411af2ec9"
    },
    {
      "type": "Feature",
      "properties": {
        "name": "UNO  イタリアーノ",
        "address": "下中居町110-9",
        "tel": "027-386-8305",
        "category": "レストラン",
        "address2": "高崎市下中居町110-9"
      },
      "geometry": {
        "coordinates": [
          139.037239,
          36.308952
        ],
        "type": "Point"
      },
      "id": "1a227ba85b6c0649b80ed7f29fb84578"
    },
    {
      "type": "Feature",
      "properties": {
        "name": "ムーンラビット",
        "address": "通町３６−１",
        "tel": "027-327-9078",
        "category": "酒類",
        "address2": "群馬県高崎市通町３６−１"
      },
      "geometry": {
        "coordinates": [
          139.010155,
          36.323883
        ],
        "type": "Point"
      },
      "id": "1a95eba7faf706158bd4f53ab4fe53a0"
    },
    {
      "type": "Feature",
      "properties": {
        "name": "長尾亭",
        "address": "榛名湖町848-1",
        "tel": "027-374-9250",
        "category": "食事、喫茶",
        "address2": "高崎市榛名湖町848-1"
      },
      "geometry": {
        "coordinates": [
          138.860453,
          36.471824
        ],
        "type": "Point"
      },
      "id": "1aeb1a287ce9f320c5e842da3c60572c"
    },
    {
      "type": "Feature",
      "properties": {
        "name": "むぎわら",
        "address": "飯玉町98-3",
        "tel": "027-381-6539",
        "category": "お好み焼、もんじゃ焼、鉄板焼",
        "address2": "高崎市飯玉町98-3"
      },
      "geometry": {
        "coordinates": [
          139.014233,
          36.338901
        ],
        "type": "Point"
      },
      "id": "1b364728849533fae88aba1bf94a136e"
    },
    {
      "type": "Feature",
      "properties": {
        "name": "白樺亭",
        "address": "榛名湖町848-1",
        "tel": "027-374-9031",
        "category": "カツカレー、うどん、そば他",
        "address2": "高崎市榛名湖町848-1"
      },
      "geometry": {
        "coordinates": [
          138.860572,
          36.471657
        ],
        "type": "Point"
      },
      "id": "1ba040caefc7bef70dd63e64e0bce4b4"
    },
    {
      "type": "Feature",
      "properties": {
        "name": "信濃",
        "address": "宮元町13-1 高崎ｽｽﾞﾗﾝ内8F",
        "tel": "027-329-5862",
        "category": "そば",
        "address2": "高崎市宮元町13-1 高崎ｽｽﾞﾗﾝ内8F"
      },
      "geometry": {
        "coordinates": [
          139.004714,
          36.324748
        ],
        "type": "Point"
      },
      "id": "1bf311be9ef51939fb6e90c9aa7ff563"
    },
    {
      "type": "Feature",
      "properties": {
        "name": "いずみ食堂",
        "address": "倉渕町三ノ倉322-1",
        "tel": "027-378-2954",
        "category": "食堂",
        "address2": "高崎市倉渕町三ノ倉322-1"
      },
      "geometry": {
        "coordinates": [
          138.792712,
          36.424205
        ],
        "type": "Point"
      },
      "id": "1c8a60bbc88d57d66c6ad34e1fe86b02"
    },
    {
      "type": "Feature",
      "properties": {
        "name": "串揚げや 〇△□  （ひふみ）",
        "address": "田町３０-１",
        "tel": "090-1604-1235",
        "category": "串揚げ、居酒屋",
        "address2": "高崎市田町３０-１"
      },
      "geometry": {
        "coordinates": [
          139.006393,
          36.327803
        ],
        "type": "Point"
      },
      "id": "1c91a5554673f525f87545e9d73d0407"
    },
    {
      "type": "Feature",
      "properties": {
        "name": "太刀",
        "address": "島野町210-5",
        "tel": "027-352-2262",
        "category": "寿司、うなぎ、酒類",
        "address2": "高崎市島野町210-5"
      },
      "geometry": {
        "coordinates": [
          139.067837,
          36.327877
        ],
        "type": "Point"
      },
      "id": "1cd7ad3de8ec74b1ec48522b362200dc"
    },
    {
      "type": "Feature",
      "properties": {
        "name": "はくもくれん",
        "address": "高松町35-1",
        "tel": "027-321-8099",
        "category": "カレー、うどん、そば、ラーメン等",
        "address2": "高崎市高松町35-1"
      },
      "geometry": {
        "coordinates": [
          139.003302,
          36.321925
        ],
        "type": "Point"
      },
      "id": "1cd8783218c43036497c79016381b92a"
    },
    {
      "type": "Feature",
      "properties": {
        "name": "福仙",
        "address": "片岡町2-10-18",
        "tel": "027-325-0513",
        "category": "そば、うどん、丼等",
        "address2": "高崎市片岡町2-10-18"
      },
      "geometry": {
        "coordinates": [
          138.995726,
          36.315602
        ],
        "type": "Point"
      },
      "id": "1ce2e009db772a385bbc3cb34aebf215"
    },
    {
      "type": "Feature",
      "properties": {
        "name": "Bon Cuore  （ヴォン・クォーレ）",
        "address": "吉井町池1374-4",
        "tel": "027-393-6587",
        "category": "カフェレストラン",
        "address2": "高崎市吉井町池1374-4"
      },
      "geometry": {
        "coordinates": [
          138.99143,
          36.267687
        ],
        "type": "Point"
      },
      "id": "1cf674b66d54db0f75542fb922074d48"
    },
    {
      "type": "Feature",
      "properties": {
        "name": "Greenpoint by Bedford Café",
        "address": "西島町１１３−１",
        "tel": "027-329-6110",
        "category": "カレー、パンケーキ、コーヒー",
        "address2": "高崎市西島町１１３−１"
      },
      "geometry": {
        "coordinates": [
          139.045451,
          36.341001
        ],
        "type": "Point"
      },
      "id": "1d283549c7b976569203583ad046375d"
    },
    {
      "type": "Feature",
      "properties": {
        "name": "Kafe HARUNA",
        "address": "榛名山町157-1",
        "tel": "080-7350-7818",
        "category": "プリン、カツサンド、ハーブティー",
        "address2": "高崎市榛名山町157-1"
      },
      "geometry": {
        "coordinates": [
          138.848543,
          36.4538
        ],
        "type": "Point"
      },
      "id": "1d5bc624c811b267b3a865b73f53e017"
    },
    {
      "type": "Feature",
      "properties": {
        "name": "カーロ",
        "address": "連雀町25-1 寿ﾋﾞﾙ1F",
        "tel": "027-326-8688",
        "category": "ピザ、パスタ",
        "address2": "高崎市連雀町25-1 寿ﾋﾞﾙ1F"
      },
      "geometry": {
        "coordinates": [
          139.007525,
          36.324548
        ],
        "type": "Point"
      },
      "id": "1d6a8199f9c9c82f70b2f1dc5448a0ae"
    },
    {
      "type": "Feature",
      "properties": {
        "name": "アンジェリーノ",
        "address": "菊地町416-2",
        "tel": "027-344-6544",
        "category": "イタリア料理",
        "address2": "高崎市菊地町416-2"
      },
      "geometry": {
        "coordinates": [
          138.964301,
          36.361201
        ],
        "type": "Point"
      },
      "id": "1da17713b71fb62210ead5b8de3dc176"
    },
    {
      "type": "Feature",
      "properties": {
        "name": "ほるもん  まつ井",
        "address": "菊地町153",
        "tel": "027-388-9165",
        "category": "焼肉店",
        "address2": "高崎市菊地町153"
      },
      "geometry": {
        "coordinates": [
          138.96535,
          36.362384
        ],
        "type": "Point"
      },
      "id": "1db5ee94a78a59e243aead9d53acf4ce"
    },
    {
      "type": "Feature",
      "properties": {
        "name": "きく平",
        "address": "通町138",
        "tel": "027-323-4057",
        "category": "酒、ビール、つまみ",
        "address2": "高崎市通町138"
      },
      "geometry": {
        "coordinates": [
          139.009424,
          36.324781
        ],
        "type": "Point"
      },
      "id": "1dd0c6ef3b5f4e1b54bfffed2e58346e"
    },
    {
      "type": "Feature",
      "properties": {
        "name": "びーふ苑",
        "address": "吉井町池12",
        "tel": "027-387-6958",
        "category": "焼肉",
        "address2": "高崎市吉井町池12"
      },
      "geometry": {
        "coordinates": [
          138.990754,
          36.261687
        ],
        "type": "Point"
      },
      "id": "1e2f5667dceb2fb75553c561bd76c4a1"
    },
    {
      "type": "Feature",
      "properties": {
        "name": "梅屋",
        "address": "箕郷町善地925",
        "tel": "027-371-014１",
        "category": "うどん",
        "address2": "高崎市箕郷町善地925"
      },
      "geometry": {
        "coordinates": [
          138.931291,
          36.408681
        ],
        "type": "Point"
      },
      "id": "1efddbbe503cd7d743e3ce7792222f67"
    },
    {
      "type": "Feature",
      "properties": {
        "name": "かめや",
        "address": "若田町1-5",
        "tel": "027-343-7151",
        "category": "とんかつ",
        "address2": "高崎市若田町1-5"
      },
      "geometry": {
        "coordinates": [
          138.938696,
          36.340616
        ],
        "type": "Point"
      },
      "id": "1efef9541172ee37c133191e6b832af9"
    },
    {
      "type": "Feature",
      "properties": {
        "name": "ひしめき亭  高崎新保店",
        "address": "新保町40-1",
        "tel": "027-381-8625",
        "category": "ハンバーグ",
        "address2": "高崎市新保町40-1"
      },
      "geometry": {
        "coordinates": [
          139.035844,
          36.343498
        ],
        "type": "Point"
      },
      "id": "1f0784a79b2e1b01e02e6f7e4d8f7263"
    },
    {
      "type": "Feature",
      "properties": {
        "name": "NOOR'S  （ノールズ）",
        "address": "通町93-30 福ﾋﾞﾙ1F",
        "tel": "070-3134-2525",
        "category": "ケバブ料理、中東料理",
        "address2": "高崎市通町93-30 福ﾋﾞﾙ1F"
      },
      "geometry": {
        "coordinates": [
          139.010055,
          36.324392
        ],
        "type": "Point"
      },
      "id": "1f2787bfcdb172b1c23eed0ab8d0de9d"
    },
    {
      "type": "Feature",
      "properties": {
        "name": "pompette  （ポンペット）",
        "address": "北通町65",
        "tel": "027-386-9845",
        "category": "ワインバー",
        "address2": "高崎市北通町65"
      },
      "geometry": {
        "coordinates": [
          139.008404,
          36.328139
        ],
        "type": "Point"
      },
      "id": "1fb5ca968bb7880dc96bd9b8a2803d6f"
    },
    {
      "type": "Feature",
      "properties": {
        "name": "よね蔵",
        "address": "上中居町295-1",
        "tel": "027-325-1710",
        "category": "居酒屋",
        "address2": "高崎市上中居町295-1"
      },
      "geometry": {
        "coordinates": [
          139.028788,
          36.315429
        ],
        "type": "Point"
      },
      "id": "1febbc3e6748debc39af57c18005d5b5"
    },
    {
      "type": "Feature",
      "properties": {
        "name": "羅珈亜樹",
        "address": "白銀町16",
        "tel": "027-327-4401",
        "category": "居酒屋",
        "address2": "高崎市白銀町16"
      },
      "geometry": {
        "coordinates": [
          139.008233,
          36.326229
        ],
        "type": "Point"
      },
      "id": "209def01513df0b5c908d8ae6afb24c8"
    },
    {
      "type": "Feature",
      "properties": {
        "name": "杏っ子",
        "address": "棟高町719 ﾀﾅｶﾋﾞﾙ2F",
        "tel": "027-372-5048",
        "category": "居酒屋",
        "address2": "高崎市棟高町719 ﾀﾅｶﾋﾞﾙ2F"
      },
      "geometry": {
        "coordinates": [
          139.000097,
          36.385386
        ],
        "type": "Point"
      },
      "id": "211f9224f8484ee765fa603b1e7b5cd7"
    },
    {
      "type": "Feature",
      "properties": {
        "name": "ザ・ジョージアンハウスカフェ  高崎タカシマヤ店",
        "address": "旭町45 高崎高島屋2F",
        "tel": "027-324-1997",
        "category": "カフェ",
        "address2": "高崎市旭町45 高崎高島屋2F"
      },
      "geometry": {
        "coordinates": [
          139.010922,
          36.324546
        ],
        "type": "Point"
      },
      "id": "21353dad808c59140898c2bbabf33930"
    },
    {
      "type": "Feature",
      "properties": {
        "name": "ニュータンメン",
        "address": "寄合町3",
        "tel": "",
        "category": "ラーメン",
        "address2": "高崎市寄合町3"
      },
      "geometry": {
        "coordinates": [
          139.005565,
          36.327196
        ],
        "type": "Point"
      },
      "id": "2141928fb18ac3436f72b6268e0ff36e"
    },
    {
      "type": "Feature",
      "properties": {
        "name": "豚骨ラーメン 博多十一番街",
        "address": "上小塙町114-4",
        "tel": "027-386-3362",
        "category": "豚骨ラーメン",
        "address2": "高崎市上小塙町114-4"
      },
      "geometry": {
        "coordinates": [
          138.977143,
          36.354166
        ],
        "type": "Point"
      },
      "id": "215d446d6c2e4729839d51b5e5def187"
    },
    {
      "type": "Feature",
      "properties": {
        "name": "孫悟空",
        "address": "八千代町4-6-1",
        "tel": "027-325-4690",
        "category": "ラーメン、中華",
        "address2": "高崎市八千代町4-6-1"
      },
      "geometry": {
        "coordinates": [
          138.987224,
          36.324043
        ],
        "type": "Point"
      },
      "id": "2181fa33e0411af21a5e0fcda55a9e56"
    },
    {
      "type": "Feature",
      "properties": {
        "name": "雪園  （せつえん）",
        "address": "緑町3-1-20",
        "tel": "027-362-2626",
        "category": "中国料理",
        "address2": "高崎市緑町3-1-20"
      },
      "geometry": {
        "coordinates": [
          139.008071,
          36.352776
        ],
        "type": "Point"
      },
      "id": "219d7ca062d922a1324efc98fe357b5a"
    },
    {
      "type": "Feature",
      "properties": {
        "name": "アンドワンカフェバー",
        "address": "昭和町17",
        "tel": "027-388-8516",
        "category": "軽食、酒類",
        "address2": "高崎市昭和町17"
      },
      "geometry": {
        "coordinates": [
          139.003333,
          36.335948
        ],
        "type": "Point"
      },
      "id": "21aa3d84fc8583c2390b525dd2b82cb8"
    },
    {
      "type": "Feature",
      "properties": {
        "name": "榛名十文字ミート",
        "address": "十文字町1419-1",
        "tel": "027-384-2901",
        "category": "うどん",
        "address2": "高崎市十文字町1419-1"
      },
      "geometry": {
        "coordinates": [
          138.912209,
          36.407672
        ],
        "type": "Point"
      },
      "id": "232ea302d6d43063b5f4a73c80db168c"
    },
    {
      "type": "Feature",
      "properties": {
        "name": "印度屋",
        "address": "飯塚町４４５-１",
        "tel": "027-361-3938",
        "category": "カレーライス",
        "address2": "群馬県高崎市飯塚町４４５-１"
      },
      "geometry": {
        "coordinates": [
          139.009349,
          36.341968
        ],
        "type": "Point"
      },
      "id": "233d53fad1cd29b2f4be4cf79240ed2b"
    },
    {
      "type": "Feature",
      "properties": {
        "name": "香雅",
        "address": "新町2159-9",
        "tel": "0274-42-2050",
        "category": "ラーメン",
        "address2": "高崎市新町2159-9"
      },
      "geometry": {
        "coordinates": [
          139.10336,
          36.274317
        ],
        "type": "Point"
      },
      "id": "239c0fb8e0c530f88cf7904d50c07f11"
    },
    {
      "type": "Feature",
      "properties": {
        "name": "紅うさぎ",
        "address": "相生町20",
        "tel": "027-386-8691",
        "category": "カツサンド、パンケーキ",
        "address2": "高崎市相生町20"
      },
      "geometry": {
        "coordinates": [
          139.001131,
          36.331689
        ],
        "type": "Point"
      },
      "id": "244fbb1af3cddcd5224bf6264a749f82"
    },
    {
      "type": "Feature",
      "properties": {
        "name": "串家物語",
        "address": "棟高町1400 ｲｵﾝﾓｰﾙ高崎",
        "tel": "027-381-6612",
        "category": "串揚げビュッフェ",
        "address2": "高崎市棟高町1400 ｲｵﾝﾓｰﾙ高崎"
      },
      "geometry": {
        "coordinates": [
          139.006748,
          36.390498
        ],
        "type": "Point"
      },
      "id": "24cb7b70148d84c64e4449b6f0139c04"
    },
    {
      "type": "Feature",
      "properties": {
        "name": "高崎髙島屋",
        "address": "旭町４５",
        "tel": "027-327-1111",
        "category": "テナントとして入居している飲食店",
        "address2": "高崎市旭町４５"
      },
      "geometry": {
        "coordinates": [
          139.010927,
          36.324227
        ],
        "type": "Point"
      },
      "id": "24ce6aab8997ec75f446cf8e345c2157"
    },
    {
      "type": "Feature",
      "properties": {
        "name": "シンキチ醸造所",
        "address": "若松町2-11",
        "tel": "080-6629-2017",
        "category": "ビール、和食",
        "address2": "高崎市若松町2-11"
      },
      "geometry": {
        "coordinates": [
          139.006839,
          36.319099
        ],
        "type": "Point"
      },
      "id": "2514af1773a37d09c7badb02d412a98b"
    },
    {
      "type": "Feature",
      "properties": {
        "name": "寿し真",
        "address": "中尾町273-8",
        "tel": "027-365-0222",
        "category": "寿司",
        "address2": "高崎市中尾町273-8"
      },
      "geometry": {
        "coordinates": [
          139.02355,
          36.374722
        ],
        "type": "Point"
      },
      "id": "255ac987fa5f01e9efc0b3a102e58613"
    },
    {
      "type": "Feature",
      "properties": {
        "name": "CAFÉ 高崎じまん",
        "address": "46−１ 高崎オーパ ７階",
        "tel": "027-386-9864",
        "category": "カフェ、焼きまんじゅう、パスタ",
        "address2": "高崎市46−１ 高崎オーパ ７階"
      },
      "geometry": {
        "coordinates": [
          139.011097,
          36.323078
        ],
        "type": "Point"
      },
      "id": "25f3278b87fb1640e7e43db43d97bc96"
    },
    {
      "type": "Feature",
      "properties": {
        "name": "安楽亭  高崎貝沢店",
        "address": "貝沢町471-7",
        "tel": "027-364-2912",
        "category": "焼肉",
        "address2": "高崎市貝沢町471-7"
      },
      "geometry": {
        "coordinates": [
          139.020994,
          36.346413
        ],
        "type": "Point"
      },
      "id": "268e4e1cbfc714dad2c0408a60d42e81"
    },
    {
      "type": "Feature",
      "properties": {
        "name": "壱丁目壱番地 北の駅  高崎店",
        "address": "大橋町48-1",
        "tel": "027-364-0567",
        "category": "居酒屋、もつ鍋",
        "address2": "高崎市大橋町48-1"
      },
      "geometry": {
        "coordinates": [
          139.000224,
          36.339541
        ],
        "type": "Point"
      },
      "id": "269a3aa0aff6f8e7f05e3ead4f390506"
    },
    {
      "type": "Feature",
      "properties": {
        "name": "ステーキガスト  高崎問屋町店",
        "address": "問屋町４丁目８−１５",
        "tel": "027-360-3374",
        "category": "ファミリーレストラン",
        "address2": "高崎市問屋町４丁目８−１５"
      },
      "geometry": {
        "coordinates": [
          139.015487,
          36.348822
        ],
        "type": "Point"
      },
      "id": "26f5da69532d560ce99befdde19d0939"
    },
    {
      "type": "Feature",
      "properties": {
        "name": "豊味亭",
        "address": "我峰町６６７",
        "tel": "027-335-6986",
        "category": "中華料理",
        "address2": "高崎市我峰町６６７"
      },
      "geometry": {
        "coordinates": [
          138.953968,
          36.35687
        ],
        "type": "Point"
      },
      "id": "26fd478293eae82c4fe40b6cfeafed34"
    },
    {
      "type": "Feature",
      "properties": {
        "name": "あいき鮨",
        "address": "片岡町２丁目３３-７",
        "tel": "027-327-1186",
        "category": "寿司",
        "address2": "群馬県高崎市片岡町２丁目３３-７"
      },
      "geometry": {
        "coordinates": [
          138.993495,
          36.313549
        ],
        "type": "Point"
      },
      "id": "2763ef780a2337aa90fe24a5b001a975"
    },
    {
      "type": "Feature",
      "properties": {
        "name": "圓松庵  （えんしょうあん）",
        "address": "吉井町池22",
        "tel": "027-387-4941",
        "category": "そば、うどん、ご飯物",
        "address2": "高崎市吉井町池22"
      },
      "geometry": {
        "coordinates": [
          138.989869,
          36.261071
        ],
        "type": "Point"
      },
      "id": "277e221f94fb20cec863e6067c721ddf"
    },
    {
      "type": "Feature",
      "properties": {
        "name": "なかじゅう亭  高崎オーパ店",
        "address": "八島町46-1",
        "tel": "027-387-0309",
        "category": "ラーメン",
        "address2": "高崎市八島町46-1"
      },
      "geometry": {
        "coordinates": [
          139.011192,
          36.323083
        ],
        "type": "Point"
      },
      "id": "27ee632ca4f6a093dc809be411ad8c8b"
    },
    {
      "type": "Feature",
      "properties": {
        "name": "桃の花",
        "address": "町屋町499",
        "tel": "027-329-5185",
        "category": "中国料理",
        "address2": "高崎市町屋町499"
      },
      "geometry": {
        "coordinates": [
          138.954514,
          36.351565
        ],
        "type": "Point"
      },
      "id": "27f17960dc12d283c0d17e9a6f93059d"
    },
    {
      "type": "Feature",
      "properties": {
        "name": "PRECIOUS BUFFET  （プレシャスビュッフェ）",
        "address": "棟高町1400 ｲｵﾝﾓｰﾙ高崎1F",
        "tel": "027-310-4012",
        "category": "ビュッフェレストラン",
        "address2": "高崎市棟高町1400 ｲｵﾝﾓｰﾙ高崎1F"
      },
      "geometry": {
        "coordinates": [
          139.00674,
          36.390519
        ],
        "type": "Point"
      },
      "id": "284ef3e136948aee1c784d16bb49988a"
    },
    {
      "type": "Feature",
      "properties": {
        "name": "あやめ屋",
        "address": "新町2519",
        "tel": "0274-42-5198",
        "category": "そば、うどん、丼物",
        "address2": "高崎市新町2519"
      },
      "geometry": {
        "coordinates": [
          139.106433,
          36.277525
        ],
        "type": "Point"
      },
      "id": "2892429d58453307896703ab4d87ae7c"
    },
    {
      "type": "Feature",
      "properties": {
        "name": "華龍飯店",
        "address": "八島町222",
        "tel": "027-321-0888",
        "category": "中華料理",
        "address2": "高崎市八島町222"
      },
      "geometry": {
        "coordinates": [
          139.011981,
          36.322699
        ],
        "type": "Point"
      },
      "id": "28f3756014c12a071da3c858acf74ef4"
    },
    {
      "type": "Feature",
      "properties": {
        "name": "魚健",
        "address": "吉井町塩川48-1",
        "tel": "027-387-2120",
        "category": "魚料理",
        "address2": "高崎市吉井町塩川48-1"
      },
      "geometry": {
        "coordinates": [
          138.980445,
          36.257381
        ],
        "type": "Point"
      },
      "id": "28f645a6b82c5f33f494f5bcde9132ce"
    },
    {
      "type": "Feature",
      "properties": {
        "name": "うかい亭",
        "address": "緑町1-27-6",
        "tel": "027-364-6484",
        "category": "とんかつ",
        "address2": "高崎市緑町1-27-6"
      },
      "geometry": {
        "coordinates": [
          139.002464,
          36.352982
        ],
        "type": "Point"
      },
      "id": "296344965c38c188fbff7463bb347574"
    },
    {
      "type": "Feature",
      "properties": {
        "name": "神戸亭",
        "address": "上中居町45-1",
        "tel": "027-326-9987",
        "category": "焼肉",
        "address2": "高崎市上中居町45-1"
      },
      "geometry": {
        "coordinates": [
          139.024382,
          36.322179
        ],
        "type": "Point"
      },
      "id": "299d8f47244a50b579a2c8d61a5426dc"
    },
    {
      "type": "Feature",
      "properties": {
        "name": "えびすや",
        "address": "鞘町３９-１",
        "tel": "",
        "category": "たこ焼き、ホルモン",
        "address2": "群馬県高崎市鞘町３９-１"
      },
      "geometry": {
        "coordinates": [
          139.005749,
          36.325912
        ],
        "type": "Point"
      },
      "id": "29a0b20198f4f9563cdbddfe7d99a1f2"
    },
    {
      "type": "Feature",
      "properties": {
        "name": "大戸屋ごはん処  高崎貝沢店",
        "address": "貝沢町1258-1",
        "tel": "027-386-2536",
        "category": "定食",
        "address2": "高崎市貝沢町1258-1"
      },
      "geometry": {
        "coordinates": [
          139.025612,
          36.341857
        ],
        "type": "Point"
      },
      "id": "29cd7acf2ced1ab5579e983f00426f99"
    },
    {
      "type": "Feature",
      "properties": {
        "name": "綾城  （あやしろ）",
        "address": "岩押町15-15",
        "tel": "027-325-8839",
        "category": "焼肉",
        "address2": "高崎市岩押町15-15"
      },
      "geometry": {
        "coordinates": [
          139.021074,
          36.320847
        ],
        "type": "Point"
      },
      "id": "29dc4678d0cd27cfd4e0b015b9d894cf"
    },
    {
      "type": "Feature",
      "properties": {
        "name": "結-musubi-",
        "address": "飯塚町1743-8",
        "tel": "027-388-8346",
        "category": "居酒屋",
        "address2": "高崎市飯塚町1743-8"
      },
      "geometry": {
        "coordinates": [
          139.012377,
          36.337809
        ],
        "type": "Point"
      },
      "id": "29f45f2be8d28d7749d54de0d58a3963"
    },
    {
      "type": "Feature",
      "properties": {
        "name": "美食みやま",
        "address": "通町128",
        "tel": "027-321-3860",
        "category": "会席",
        "address2": "高崎市通町128"
      },
      "geometry": {
        "coordinates": [
          139.009648,
          36.324996
        ],
        "type": "Point"
      },
      "id": "2ad3bd3284a7266d7c46fdf145dbc60c"
    },
    {
      "type": "Feature",
      "properties": {
        "name": "小吃坊  （しょうちぼう）",
        "address": "宮元町13-1 高崎ｽｽﾞﾗﾝ内8F",
        "tel": "027-329-5362",
        "category": "中華レストラン",
        "address2": "高崎市宮元町13-1 高崎ｽｽﾞﾗﾝ内8F"
      },
      "geometry": {
        "coordinates": [
          139.00464,
          36.324949
        ],
        "type": "Point"
      },
      "id": "2ad8a50ebbf91d89cbe0c52197b4ec66"
    },
    {
      "type": "Feature",
      "properties": {
        "name": "直久",
        "address": "八島町２２２",
        "tel": "027-388-8663",
        "category": "ラーメン、定食",
        "address2": "群馬県高崎市八島町２２２"
      },
      "geometry": {
        "coordinates": [
          139.013357,
          36.322231
        ],
        "type": "Point"
      },
      "id": "2b2dbe0aaeccd4810bac0d4dfd705498"
    },
    {
      "type": "Feature",
      "properties": {
        "name": "ホルモンひろ",
        "address": "上並榎町２３８−５",
        "tel": "080-9825-5015",
        "category": "焼肉、居酒屋",
        "address2": "高崎市上並榎町２３８−５"
      },
      "geometry": {
        "coordinates": [
          138.987158,
          36.344548
        ],
        "type": "Point"
      },
      "id": "2b2fcaea10c824f87c0c05e924aa66e4"
    },
    {
      "type": "Feature",
      "properties": {
        "name": "オリオン餃子  高崎店",
        "address": "八島町１７−１ 信和ビル1F",
        "tel": "027-384-2098",
        "category": "餃子、ラーメン",
        "address2": "高崎市八島町１７−１ 信和ビル1F"
      },
      "geometry": {
        "coordinates": [
          139.009773,
          36.322529
        ],
        "type": "Point"
      },
      "id": "2b31e55fe2c96f31691eddf4979c88c7"
    },
    {
      "type": "Feature",
      "properties": {
        "name": "Hook",
        "address": "上並榎町439-3",
        "tel": "027-363-2748",
        "category": "レストランバー、居酒屋",
        "address2": "高崎市上並榎町439-3"
      },
      "geometry": {
        "coordinates": [
          138.990843,
          36.342656
        ],
        "type": "Point"
      },
      "id": "2b528629b8ba137b08a87be1170e4ebd"
    },
    {
      "type": "Feature",
      "properties": {
        "name": "網元寿司",
        "address": "芝塚町1801-1",
        "tel": "027-326-3545",
        "category": "寿司割烹",
        "address2": "高崎市芝塚町1801-1"
      },
      "geometry": {
        "coordinates": [
          139.012995,
          36.33623
        ],
        "type": "Point"
      },
      "id": "2b79988631549b5a606d80529f47b394"
    },
    {
      "type": "Feature",
      "properties": {
        "name": "さんぷく",
        "address": "嘉多町1 2F",
        "tel": "027-322-2920",
        "category": "うなぎ料理",
        "address2": "高崎市嘉多町1 2F"
      },
      "geometry": {
        "coordinates": [
          139.001867,
          36.329714
        ],
        "type": "Point"
      },
      "id": "2ba0e17c981b17e72a3db83d12460980"
    },
    {
      "type": "Feature",
      "properties": {
        "name": "いしだ",
        "address": "石原町2879-1",
        "tel": "027-323-5040",
        "category": "フランス料理",
        "address2": "高崎市石原町2879-1"
      },
      "geometry": {
        "coordinates": [
          138.990917,
          36.3064
        ],
        "type": "Point"
      },
      "id": "2bd96459ec31a0d1f3b4f6b96cd44e0d"
    },
    {
      "type": "Feature",
      "properties": {
        "name": "ステーキ。山  高崎上大類店",
        "address": "上大類町933-1",
        "tel": "027-352-1701",
        "category": "ステーキ",
        "address2": "高崎市上大類町933-1"
      },
      "geometry": {
        "coordinates": [
          139.029576,
          36.336264
        ],
        "type": "Point"
      },
      "id": "2c1090c524917888b4bc1704a75d8d7d"
    },
    {
      "type": "Feature",
      "properties": {
        "name": "水香苑",
        "address": "八島町222 高崎ﾓﾝﾄﾚｰ5階553",
        "tel": "027-386-6234",
        "category": "水沢うどん",
        "address2": "高崎市八島町222 高崎ﾓﾝﾄﾚｰ5階553"
      },
      "geometry": {
        "coordinates": [
          139.01205,
          36.322436
        ],
        "type": "Point"
      },
      "id": "2c328840b80f2c592ce9375c8bfe2167"
    },
    {
      "type": "Feature",
      "properties": {
        "name": "まてんろう",
        "address": "吉井町下長根321-17",
        "tel": "027-387-6917",
        "category": "中華料理",
        "address2": "高崎市吉井町下長根321-17"
      },
      "geometry": {
        "coordinates": [
          138.974737,
          36.25046
        ],
        "type": "Point"
      },
      "id": "2c33cf6bd199976c45a0d8d9ce735817"
    },
    {
      "type": "Feature",
      "properties": {
        "name": "フタツメ  八千代店",
        "address": "八千代町1-12-7   岩崎ﾋﾞﾙ1F",
        "tel": "027-324-8588",
        "category": "ラーメン",
        "address2": "高崎市八千代町1-12-7   岩崎ﾋﾞﾙ1F"
      },
      "geometry": {
        "coordinates": [
          138.993014,
          36.320893
        ],
        "type": "Point"
      },
      "id": "2c38d873cc1649649a8a86769da25ffb"
    },
    {
      "type": "Feature",
      "properties": {
        "name": "カフェ・クレッセンド",
        "address": "浜川町1354-5",
        "tel": "027-343-9945",
        "category": "コーヒー、軽食",
        "address2": "高崎市浜川町1354-5"
      },
      "geometry": {
        "coordinates": [
          138.984463,
          36.369389
        ],
        "type": "Point"
      },
      "id": "2c93a997126db5684ded4e4f8b8769d2"
    },
    {
      "type": "Feature",
      "properties": {
        "name": "ケンタッキーフライドチキン  イオンモール高崎店",
        "address": "棟高町1400 ｲｵﾝﾓｰﾙ高崎3F",
        "tel": "027-310-9177",
        "category": "フライドチキン",
        "address2": "高崎市棟高町1400 ｲｵﾝﾓｰﾙ高崎3F"
      },
      "geometry": {
        "coordinates": [
          139.007229,
          36.390214
        ],
        "type": "Point"
      },
      "id": "2d02fab1cdb143d340a54723ad0fb065"
    },
    {
      "type": "Feature",
      "properties": {
        "name": "BISTROT REGAL",
        "address": "宮元町296",
        "tel": "027-381-5866",
        "category": "ビストロ、フレンチ",
        "address2": "高崎市宮元町296"
      },
      "geometry": {
        "coordinates": [
          139.004947,
          36.321374
        ],
        "type": "Point"
      },
      "id": "2db3500c291e8bd86d582b70181d04c4"
    },
    {
      "type": "Feature",
      "properties": {
        "name": "覚瑛",
        "address": "三ツ寺町265-1",
        "tel": "027-384-2647",
        "category": "洋食",
        "address2": "高崎市三ツ寺町265-1"
      },
      "geometry": {
        "coordinates": [
          138.995362,
          36.382587
        ],
        "type": "Point"
      },
      "id": "2ece9871156d1d00909b4e5951993040"
    },
    {
      "type": "Feature",
      "properties": {
        "name": "サザンメイドカフェ",
        "address": "前橋市下石倉町１２-９",
        "tel": "027-386-9800",
        "category": "カフェ",
        "address2": "群馬県前橋市下石倉町１２-９"
      },
      "geometry": {
        "coordinates": [
          139.056239,
          36.380814
        ],
        "type": "Point"
      },
      "id": "2ed1c715fdd0e3cd292b2fc6349c76b2"
    },
    {
      "type": "Feature",
      "properties": {
        "name": "キッチン萌",
        "address": "下小鳥町74-12 ｼﾙﾌｨｰﾄﾞ-1-D・E",
        "tel": "027-363-2425",
        "category": "カフェ",
        "address2": "高崎市下小鳥町74-12 ｼﾙﾌｨｰﾄﾞ-1-D・E"
      },
      "geometry": {
        "coordinates": [
          138.991122,
          36.352056
        ],
        "type": "Point"
      },
      "id": "2f4b20665e2db447474c75eb6075c8a9"
    },
    {
      "type": "Feature",
      "properties": {
        "name": "CoCo壱番屋  高崎筑縄店",
        "address": "筑縄町50-7",
        "tel": "027-370-2578",
        "category": "カレー",
        "address2": "高崎市筑縄町50-7"
      },
      "geometry": {
        "coordinates": [
          138.991774,
          36.354504
        ],
        "type": "Point"
      },
      "id": "2f5420df09e55f00a5f9517e64837923"
    },
    {
      "type": "Feature",
      "properties": {
        "name": "たどおし",
        "address": "並榎町147",
        "tel": "027-327-0125",
        "category": "和食料理、アルコール、ソフトドリンク",
        "address2": "高崎市並榎町147"
      },
      "geometry": {
        "coordinates": [
          138.996208,
          36.334565
        ],
        "type": "Point"
      },
      "id": "2f6d08406111224783f26c26bab81b66"
    },
    {
      "type": "Feature",
      "properties": {
        "name": "Luana'",
        "address": "通町５１−１ ハリス壱番館 1階",
        "tel": "027-386-8796",
        "category": "ワインダイニング",
        "address2": "高崎市通町５１−１ ハリス壱番館 1階"
      },
      "geometry": {
        "coordinates": [
          139.008785,
          36.323743
        ],
        "type": "Point"
      },
      "id": "2f9e08182b294a44f49cce0f01bf42a0"
    },
    {
      "type": "Feature",
      "properties": {
        "name": "悠水",
        "address": "下室田町2229-6",
        "tel": "027-374-4919",
        "category": "そば",
        "address2": "高崎市下室田町2229-6"
      },
      "geometry": {
        "coordinates": [
          138.895553,
          36.382676
        ],
        "type": "Point"
      },
      "id": "2fc96909176b813e815447289dadbcc9"
    },
    {
      "type": "Feature",
      "properties": {
        "name": "牛角  高崎問屋町店",
        "address": "問屋町2-3-4",
        "tel": "027-370-8929",
        "category": "焼肉",
        "address2": "高崎市問屋町2-3-4"
      },
      "geometry": {
        "coordinates": [
          139.009882,
          36.347798
        ],
        "type": "Point"
      },
      "id": "301596717bc213b3990cca00488dc8dc"
    },
    {
      "type": "Feature",
      "properties": {
        "name": "しげ寿司",
        "address": "北新波町１７１−４",
        "tel": "027-343-0154",
        "category": "寿司",
        "address2": "高崎市北新波町１７１−４"
      },
      "geometry": {
        "coordinates": [
          138.972842,
          36.364547
        ],
        "type": "Point"
      },
      "id": "3051b1c9c04e1aee7ec0836e16008bbc"
    },
    {
      "type": "Feature",
      "properties": {
        "name": "日本一馬鹿豚",
        "address": "貝沢町1320-1",
        "tel": "027-388-1198",
        "category": "らーめん、つけ麺、まぜそば",
        "address2": "高崎市貝沢町1320-1"
      },
      "geometry": {
        "coordinates": [
          139.027029,
          36.339486
        ],
        "type": "Point"
      },
      "id": "305ac703fd283d2abfcde6545d0406a7"
    },
    {
      "type": "Feature",
      "properties": {
        "name": "スターバックスコーヒー",
        "address": "八島町46-1",
        "tel": "027-310-5570",
        "category": "カフェ",
        "address2": "高崎市八島町46-1"
      },
      "geometry": {
        "coordinates": [
          139.011071,
          36.323093
        ],
        "type": "Point"
      },
      "id": "308a0337c2639e652b0428912c095711"
    },
    {
      "type": "Feature",
      "properties": {
        "name": "巧",
        "address": "八幡町301",
        "tel": "027-393-6729",
        "category": "居酒屋",
        "address2": "高崎市八幡町301"
      },
      "geometry": {
        "coordinates": [
          138.960481,
          36.337936
        ],
        "type": "Point"
      },
      "id": "30c3f7c8e633f8c08334c1b495f15a69"
    },
    {
      "type": "Feature",
      "properties": {
        "name": "HO・OPONOPONO",
        "address": "上並榎町187-8",
        "tel": "090-7825-4475",
        "category": "石窯料理、ピザ",
        "address2": "高崎市上並榎町187-8"
      },
      "geometry": {
        "coordinates": [
          138.986791,
          36.345364
        ],
        "type": "Point"
      },
      "id": "30d3e6a5228920ded89cdcb92b21b8d3"
    },
    {
      "type": "Feature",
      "properties": {
        "name": "そうじゃ屋",
        "address": "栄町1-1 LABI1 LIFE SELECT高崎5階",
        "tel": "027-387-0160",
        "category": "ラーメン",
        "address2": "高崎市栄町1-1 LABI1 LIFE SELECT高崎5階"
      },
      "geometry": {
        "coordinates": [
          139.013697,
          36.322837
        ],
        "type": "Point"
      },
      "id": "315264104a306f632b5d5cb17160e6d5"
    },
    {
      "type": "Feature",
      "properties": {
        "name": "和  高しま",
        "address": "通町131",
        "tel": "027-326-2838",
        "category": "和食",
        "address2": "高崎市通町131"
      },
      "geometry": {
        "coordinates": [
          139.00951,
          36.3249
        ],
        "type": "Point"
      },
      "id": "3159f831534e291b6fcd5f9a4731e501"
    },
    {
      "type": "Feature",
      "properties": {
        "name": "やまなか",
        "address": "倉渕町三ノ倉2057-1",
        "tel": "027-378-3134",
        "category": "そば",
        "address2": "高崎市倉渕町三ノ倉2057-1"
      },
      "geometry": {
        "coordinates": [
          138.818426,
          36.396544
        ],
        "type": "Point"
      },
      "id": "31f536092973cae80e78993569cb35af"
    },
    {
      "type": "Feature",
      "properties": {
        "name": "らーめんともや  高崎店",
        "address": "小八木町859-1",
        "tel": "027-361-2001",
        "category": "ラーメン",
        "address2": "高崎市小八木町859-1"
      },
      "geometry": {
        "coordinates": [
          139.016108,
          36.359754
        ],
        "type": "Point"
      },
      "id": "32cae3aeda87dda897156edb293f0a36"
    },
    {
      "type": "Feature",
      "properties": {
        "name": "高崎青春ブタ二郎",
        "address": "東町7-7 内田ﾋﾞﾙ1階",
        "tel": "027-329-5078",
        "category": "らーめん、つけ麺、まぜそば",
        "address2": "高崎市東町7-7 内田ﾋﾞﾙ1階"
      },
      "geometry": {
        "coordinates": [
          139.014275,
          36.323932
        ],
        "type": "Point"
      },
      "id": "3324cec4e51739300ae297aa2d184891"
    },
    {
      "type": "Feature",
      "properties": {
        "name": "菜の花",
        "address": "倉渕町三ノ倉１５８８−１",
        "tel": "027-378-2624",
        "category": "中華料理",
        "address2": "高崎市倉渕町三ノ倉１５８８−１"
      },
      "geometry": {
        "coordinates": [
          138.808637,
          36.405204
        ],
        "type": "Point"
      },
      "id": "3378b6ac72b04a689c9496ac661df983"
    },
    {
      "type": "Feature",
      "properties": {
        "name": "ヴィアンド",
        "address": "八千代町1-6-5",
        "tel": "027-326-6565",
        "category": "レストラン",
        "address2": "高崎市八千代町1-6-5"
      },
      "geometry": {
        "coordinates": [
          138.99249,
          36.322657
        ],
        "type": "Point"
      },
      "id": "33a364d626df70bde3d229688819ce40"
    },
    {
      "type": "Feature",
      "properties": {
        "name": "一福",
        "address": "通町47",
        "tel": "027-386-3356",
        "category": "居酒屋",
        "address2": "高崎市通町47"
      },
      "geometry": {
        "coordinates": [
          139.009286,
          36.323714
        ],
        "type": "Point"
      },
      "id": "33b9b02205dcb032656f17dc2955e766"
    },
    {
      "type": "Feature",
      "properties": {
        "name": "想や",
        "address": "吉井町馬庭855",
        "tel": "027-388-1163",
        "category": "刺身、惣菜",
        "address2": "高崎市吉井町馬庭855"
      },
      "geometry": {
        "coordinates": [
          139.008328,
          36.268521
        ],
        "type": "Point"
      },
      "id": "33c7388796eb0f4388634c4bec5f293d"
    },
    {
      "type": "Feature",
      "properties": {
        "name": "味生庵",
        "address": "足門町824-10",
        "tel": "027-373-1132",
        "category": "うどん、そば",
        "address2": "高崎市足門町824-10"
      },
      "geometry": {
        "coordinates": [
          138.997884,
          36.396772
        ],
        "type": "Point"
      },
      "id": "33cc52fcbca9d5439da2d9fe57bb08e7"
    },
    {
      "type": "Feature",
      "properties": {
        "name": "Pepper Lunch",
        "address": "棟高町1400 ｲｵﾝﾓｰﾙ高崎3F",
        "tel": "027-372-7329",
        "category": "ステーキ、ハンバーグ",
        "address2": "高崎市棟高町1400 ｲｵﾝﾓｰﾙ高崎3F"
      },
      "geometry": {
        "coordinates": [
          139.006921,
          36.389691
        ],
        "type": "Point"
      },
      "id": "33d4c75ddc55b59b5c2080b23af36c7d"
    },
    {
      "type": "Feature",
      "properties": {
        "name": "萬嵐  （わんらん）",
        "address": "通町49",
        "tel": "027-327-0012",
        "category": "中国料理",
        "address2": "高崎市通町49"
      },
      "geometry": {
        "coordinates": [
          139.00892,
          36.323917
        ],
        "type": "Point"
      },
      "id": "33e329ff2f083f460f4ca3fab9f4deac"
    },
    {
      "type": "Feature",
      "properties": {
        "name": "たん善",
        "address": "貝沢町747-3",
        "tel": "027-386-8229",
        "category": "牛たん定食",
        "address2": "高崎市貝沢町747-3"
      },
      "geometry": {
        "coordinates": [
          139.019472,
          36.344855
        ],
        "type": "Point"
      },
      "id": "3411d79884202fc4ee869bb7f90b2307"
    },
    {
      "type": "Feature",
      "properties": {
        "name": "群馬温泉  やすらぎの湯",
        "address": "金古町1767-2他",
        "tel": "027-372-4126",
        "category": "定食、おきりこみ等",
        "address2": "高崎市金古町1767-2他"
      },
      "geometry": {
        "coordinates": [
          138.991527,
          36.415831
        ],
        "type": "Point"
      },
      "id": "345d9a28ea9ccac3a30f72bdd48cab48"
    },
    {
      "type": "Feature",
      "properties": {
        "name": "茶蔵坊",
        "address": "八島町222",
        "tel": "080-2371-8082",
        "category": "サラダ等",
        "address2": "高崎市八島町222"
      },
      "geometry": {
        "coordinates": [
          139.012051,
          36.322446
        ],
        "type": "Point"
      },
      "id": "3482200a19a0e62e964686068bc94a42"
    },
    {
      "type": "Feature",
      "properties": {
        "name": "富留川",
        "address": "下之城町177-23",
        "tel": "027-323-8977",
        "category": "とんかつ",
        "address2": "高崎市下之城町177-23"
      },
      "geometry": {
        "coordinates": [
          139.02984,
          36.311514
        ],
        "type": "Point"
      },
      "id": "34e51512274d66bad872cc66bb2164bb"
    },
    {
      "type": "Feature",
      "properties": {
        "name": "一水庵",
        "address": "吉井町小串１０９",
        "tel": "027-387-7986",
        "category": "そば、うどん",
        "address2": "群馬県高崎市吉井町小串１０９"
      },
      "geometry": {
        "coordinates": [
          139.01357,
          36.255388
        ],
        "type": "Point"
      },
      "id": "353a62ad1626d78c75eb50b919774048"
    },
    {
      "type": "Feature",
      "properties": {
        "name": "BEER BAR BEAR",
        "address": "八島町２９ TWINSビル 2F",
        "tel": "027-381-6864",
        "category": "アルコール、おつまみ",
        "address2": "高崎市八島町２９ TWINSビル 2F"
      },
      "geometry": {
        "coordinates": [
          139.01075,
          36.322704
        ],
        "type": "Point"
      },
      "id": "357ec92f4861bfb796219b1b99711e81"
    },
    {
      "type": "Feature",
      "properties": {
        "name": "玉いち",
        "address": "上並榎町1000-4",
        "tel": "027-362-8832",
        "category": "とんかつ",
        "address2": "高崎市上並榎町1000-4"
      },
      "geometry": {
        "coordinates": [
          138.985189,
          36.344456
        ],
        "type": "Point"
      },
      "id": "35adcada293ddf557bff76d7f4fcca87"
    },
    {
      "type": "Feature",
      "properties": {
        "name": "成都  （せいと）",
        "address": "嘉多町４５-４ 成都",
        "tel": "027-381-6520",
        "category": "中華料理",
        "address2": "群馬県高崎市嘉多町４５-４ 成都"
      },
      "geometry": {
        "coordinates": [
          139.003976,
          36.329535
        ],
        "type": "Point"
      },
      "id": "35f850a446d2125bfb331048fe8de8d0"
    },
    {
      "type": "Feature",
      "properties": {
        "name": "博多ん丸",
        "address": "棟高町1400 ｲｵﾝﾓｰﾙ高崎3F",
        "tel": "027-310-9167",
        "category": "ラーメン",
        "address2": "高崎市棟高町1400 ｲｵﾝﾓｰﾙ高崎3F"
      },
      "geometry": {
        "coordinates": [
          139.007028,
          36.39034
        ],
        "type": "Point"
      },
      "id": "36238f1dddda43c1629a4a13cc4a548d"
    },
    {
      "type": "Feature",
      "properties": {
        "name": "せんや",
        "address": "西島町49-1",
        "tel": "027-353-5561",
        "category": "ラーメン等",
        "address2": "高崎市西島町49-1"
      },
      "geometry": {
        "coordinates": [
          139.049674,
          36.341636
        ],
        "type": "Point"
      },
      "id": "36712bab53063185dd820f109d9b2866"
    },
    {
      "type": "Feature",
      "properties": {
        "name": "みるく工房タンポポ  群馬八幡駅前店",
        "address": "剣崎町201-15",
        "tel": "027-343-0505",
        "category": "牧場ジェラート、ソフトクリーム",
        "address2": "高崎市剣崎町201-15"
      },
      "geometry": {
        "coordinates": [
          138.957268,
          36.338422
        ],
        "type": "Point"
      },
      "id": "3690adaccab31dc078c8732b9f802cd3"
    },
    {
      "type": "Feature",
      "properties": {
        "name": "るぅ～",
        "address": "石原町4177",
        "tel": "027-324-8867",
        "category": "カレー",
        "address2": "高崎市石原町4177"
      },
      "geometry": {
        "coordinates": [
          139.005912,
          36.308318
        ],
        "type": "Point"
      },
      "id": "36a018ef4a03b305f64b50ec04e925d0"
    },
    {
      "type": "Feature",
      "properties": {
        "name": "ダンニャバード  寺尾店",
        "address": "寺尾町570-4",
        "tel": "027-310-5075",
        "category": "カレー",
        "address2": "高崎市寺尾町570-4"
      },
      "geometry": {
        "coordinates": [
          139.011173,
          36.297514
        ],
        "type": "Point"
      },
      "id": "37829e3c622d6c1ebe15d7589cf3513a"
    },
    {
      "type": "Feature",
      "properties": {
        "name": "ぷるぷるホルモン  高崎剣崎店",
        "address": "剣崎町1043-3",
        "tel": "027-343-8907",
        "category": "焼肉",
        "address2": "高崎市剣崎町1043-3"
      },
      "geometry": {
        "coordinates": [
          138.963434,
          36.34449
        ],
        "type": "Point"
      },
      "id": "37a299397a6bd71326b4758e7e1529a7"
    },
    {
      "type": "Feature",
      "properties": {
        "name": "大戸屋ごはん処  イオンモール高崎店",
        "address": "棟高町１４００",
        "tel": "027-381-8950",
        "category": "定食",
        "address2": "群馬県高崎市棟高町１４００"
      },
      "geometry": {
        "coordinates": [
          139.006931,
          36.389708
        ],
        "type": "Point"
      },
      "id": "37a3d3fe5af908a6f5e63ae658cfaf05"
    },
    {
      "type": "Feature",
      "properties": {
        "name": "百合",
        "address": "新町2258",
        "tel": "027-442-4707",
        "category": "小料理",
        "address2": "高崎市新町2258"
      },
      "geometry": {
        "coordinates": [
          139.108067,
          36.275342
        ],
        "type": "Point"
      },
      "id": "37c87c9ce9f88d791c473392ac3b671d"
    },
    {
      "type": "Feature",
      "properties": {
        "name": "珈琲館  高崎小鳥町店",
        "address": "下小鳥町453-1",
        "tel": "027-363-5351",
        "category": "喫茶店",
        "address2": "高崎市下小鳥町453-1"
      },
      "geometry": {
        "coordinates": [
          138.999441,
          36.353822
        ],
        "type": "Point"
      },
      "id": "380e5de38197bd050e619a4de8acf656"
    },
    {
      "type": "Feature",
      "properties": {
        "name": "鴨緑江  （おうりょくこう）",
        "address": "吉井町長根1367-31",
        "tel": "027-387-6464",
        "category": "焼肉",
        "address2": "高崎市吉井町長根1367-31"
      },
      "geometry": {
        "coordinates": [
          138.965344,
          36.255298
        ],
        "type": "Point"
      },
      "id": "383db8d35565c852045e2b2531eecf0f"
    },
    {
      "type": "Feature",
      "properties": {
        "name": "龍翔飯店",
        "address": "緑町1-12-5",
        "tel": "027-364-1288",
        "category": "中華料理",
        "address2": "高崎市緑町1-12-5"
      },
      "geometry": {
        "coordinates": [
          139.000509,
          36.352435
        ],
        "type": "Point"
      },
      "id": "383fff63c38ab74302eab634326c0738"
    },
    {
      "type": "Feature",
      "properties": {
        "name": "スナック  サム",
        "address": "新紺屋町25",
        "tel": "027-323-9700",
        "category": "スナック",
        "address2": "高崎市新紺屋町25"
      },
      "geometry": {
        "coordinates": [
          139.005067,
          36.32847
        ],
        "type": "Point"
      },
      "id": "3897e5d02e2a48c740ea6ed051b75342"
    },
    {
      "type": "Feature",
      "properties": {
        "name": "菊乃家",
        "address": "本町51",
        "tel": "027-322-7299",
        "category": "定食",
        "address2": "高崎市本町51"
      },
      "geometry": {
        "coordinates": [
          139.005141,
          36.330403
        ],
        "type": "Point"
      },
      "id": "390d2f6df512d3b05328a9d04ab2f68b"
    },
    {
      "type": "Feature",
      "properties": {
        "name": "TIGA  矢中店",
        "address": "矢中町181-1",
        "tel": "027-381-5926",
        "category": "イタリアン、酒",
        "address2": "高崎市矢中町181-1"
      },
      "geometry": {
        "coordinates": [
          139.049893,
          36.311065
        ],
        "type": "Point"
      },
      "id": "391c2b3a0f04b80b91dc5871a19f43e5"
    },
    {
      "type": "Feature",
      "properties": {
        "name": "ル・テルモス",
        "address": "石原町2652-1",
        "tel": "027-323-1622",
        "category": "カフェ",
        "address2": "高崎市石原町2652-1"
      },
      "geometry": {
        "coordinates": [
          138.989523,
          36.306962
        ],
        "type": "Point"
      },
      "id": "392564b3f57635af126698d0b2f89f68"
    },